     2.11           OBSERVATION DATA    M (MIXED)           RINEX VERSION / TYPE
JPS2RIN v.2.0.74    JAVAD GNSS          20130115 072243 UTC PGM / RUN BY / DATE
-Unknown-           -Unknown-                               OBSERVER / AGENCY
IRKL1119a                                                   MARKER NAME
8RENGERSIKG         EGGDT_3             2.6.0 Apr,18,2007   REC # / TYPE / VERS
  -968428.5697  3794087.3175  5018381.6309                  APPROX POSITION XYZ
-Unknown-           -Unknown-                               ANT # / TYPE
        0.0000        0.0000        0.0000                  ANTENNA: DELTA H/E/N
     1     1                                                WAVELENGTH FACT L1/2
     9    C1    P1    L1    D1    S1    P2    L2    D2    S2# / TYPES OF OBSERV
    30.000                                                  INTERVAL
  2011    11    19     0     0    0.0000000     GPS         TIME OF FIRST OBS
  2011    11    19    23    59   30.0000000     GPS         TIME OF LAST OBS
    15                                                      LEAP SECONDS
    53                                                      # OF SATELLITES
   G 1  1016  1012  1012  1016  1012  1012  1012  1012  1012PRN / # OF OBS
   G 2   792   790   790   792   790   790   790   790   790PRN / # OF OBS
   G 3   956   954   954   956   954   954   954   954   954PRN / # OF OBS
   G 4   760   758   758   760   758   757   757   757   757PRN / # OF OBS
   G 5   858   852   852   858   852   852   852   852   852PRN / # OF OBS
   G 6  1021  1017  1017  1021  1017  1017  1017  1017  1017PRN / # OF OBS
   G 7   986   983   983   986   983   983   983   983   983PRN / # OF OBS
   G 8   850   848   848   850   848   848   848   848   848PRN / # OF OBS
   G 9  1001   997   997  1001   997   997   997   997   997PRN / # OF OBS
   G10   962   954   954   962   954   954   954   954   954PRN / # OF OBS
   G11   971   956   956   971   956   956   956   956   956PRN / # OF OBS
   G12  1051  1050  1050  1051  1050  1050  1050  1050  1050PRN / # OF OBS
   G13  1025   994   994  1025   994   994   994   994   994PRN / # OF OBS
   G14   784   778   778   784   778   778   778   778   778PRN / # OF OBS
   G15   930   926   926   930   926   926   926   926   926PRN / # OF OBS
   G16   921   913   913   921   913   913   913   913   913PRN / # OF OBS
   G17   785   784   784   785   784   784   784   784   784PRN / # OF OBS
   G18   776   769   769   776   769   769   769   769   769PRN / # OF OBS
   G19   955   953   953   955   953   953   953   953   953PRN / # OF OBS
   G20  1016  1012  1012  1016  1012  1012  1012  1012  1012PRN / # OF OBS
   G21   985   964   964   985   964   964   964   964   964PRN / # OF OBS
   G22   907   898   898   907   898   898   898   898   898PRN / # OF OBS
   G23  1011  1006  1006  1011  1006  1006  1006  1006  1006PRN / # OF OBS
   G25  1045  1044  1044  1045  1044  1044  1044  1044  1044PRN / # OF OBS
   G26   992   985   985   992   985   985   985   985   985PRN / # OF OBS
   G28   954   905   905   954   905   905   905   905   905PRN / # OF OBS
   G29  1033  1032  1032  1033  1032  1032  1032  1032  1032PRN / # OF OBS
   G30   924   919   919   924   919   919   919   919   919PRN / # OF OBS
   G31   857   853   853   857   853   853   853   853   853PRN / # OF OBS
   G32  1021  1016  1016  1021  1016  1016  1016  1016  1016PRN / # OF OBS
   R 1  1020  1016  1016  1020  1016  1016  1016  1016  1016PRN / # OF OBS
   R 2  1026  1022  1022  1026  1022  1022  1022  1022  1022PRN / # OF OBS
   R 4   993   993   993   993   993   993   993   993   993PRN / # OF OBS
   R 5  1052  1032  1032  1052  1032  1031  1031  1031  1031PRN / # OF OBS
   R 6  1083  1067  1067  1083  1067  1067  1067  1067  1067PRN / # OF OBS
   R 7   978   976   976   978   976   976   976   976   976PRN / # OF OBS
   R 8   992   342   342   992   342   342   342   342   342PRN / # OF OBS
   R 9   924   922   922   924   922   922   922   922   922PRN / # OF OBS
   R10   917   917   917   917   917   917   917   917   917PRN / # OF OBS
   R11   930   906   906   930   906   905   905   905   905PRN / # OF OBS
   R12  1091  1088  1088  1091  1088  1088  1088  1088  1088PRN / # OF OBS
   R13  1171  1170  1170  1171  1170  1170  1170  1170  1170PRN / # OF OBS
   R14  1153  1152  1152  1153  1152  1152  1152  1152  1152PRN / # OF OBS
   R15  1021  1021  1021  1021  1021  1021  1021  1021  1021PRN / # OF OBS
   R16   953   941   941   953   941   941   941   941   941PRN / # OF OBS
   R17   972   971   971   972   971   971   971   971   971PRN / # OF OBS
   R18   925   920   920   925   920   920   920   920   920PRN / # OF OBS
   R19   924   867   867   924   867   867   867   867   867PRN / # OF OBS
   R20   909   909   909   909   909   909   909   909   909PRN / # OF OBS
   R21   936   918   918   936   918   918   918   918   918PRN / # OF OBS
   R22  1134  1111  1111  1134  1111  1111  1111  1111  1111PRN / # OF OBS
   R23  1152  1138  1138  1152  1138  1138  1138  1138  1138PRN / # OF OBS
   R24  1159  1156  1156  1159  1156  1156  1156  1156  1156PRN / # OF OBS
                                                            END OF HEADER
 11 11 19  0  0  0.0000000  0 18G 1G28R22G19R12G 7G 3G 6R 6R24R 5G26-0.000381360
                                G11G16R13R14G 9R23
  23815384.399    23815383.399   125150709.498 3      3673.062          23.000
  23815389.819    97520038.895 3      2862.131          23.000
  23418101.271    23418101.711   123062972.555 4      2734.873          26.000
  23418102.171    95893253.756 4      2131.058          26.000
  20126479.896    20126478.966   107436542.331 8     -2689.682          49.000
  20126481.376    83561751.673 8     -2091.975          51.000
  20576503.229    20576502.049   108130286.272 7     -1409.996          45.000
  20576502.529    84257380.213 7     -1098.694          44.000
  20850572.181    20850572.801   111380006.614 7     -3389.656          46.000
  20850577.741    86628932.758 7     -2636.398          47.000
  20361179.481    20361179.631   106998736.463 7     -1067.792          45.000
  20361180.291    83375650.933 7      -832.044          44.000
  22177243.051    22177242.661   116542217.286 4     -3334.688          29.000
  22177245.871    90812122.280 4     -2598.454          29.000
  23871189.427    23871188.467   125443955.409 4     -3352.070          24.000
  23871191.877    97748550.458 4     -2611.985          24.000
  23896969.324    23896969.354   127518814.997 6      2436.943          36.000
  23896971.234    99181317.730 5      1895.400          35.000
  22949017.522    22949017.462   122718718.643 6      4242.836          38.000
  22949020.692    95447919.845 6      3299.983          39.000
  23330233.429    23330231.749   124713467.650 6      -674.022          38.000
  23330234.539    96999390.937 6      -524.247          40.000
  23194679.359    23194678.499   121888880.237 4      1164.070          24.000
  23194679.529    94978345.007 4       907.065          24.000
  21898256.781    21898256.651   115076153.683 5      2921.807          33.000
  21898257.141    89669720.009 5      2276.731          33.000
  24811902.342    24811902.872   130387406.268 2     -3293.708          14.000
  24811906.052   101600578.315 2     -2566.523          14.000
  19151353.661    19151353.321   102267163.255 8       455.819          51.000
  19151355.541    79541142.904 8       354.527          53.000
  21666798.605    21666798.485   115496238.298 7      3768.941          42.000
  21666805.245    89830427.584 7      2931.396          46.000
  20650946.121    20650945.821   108521462.384 7      1554.042          42.000
  20650947.501    84562190.349 7      1210.942          42.000
  19472152.699    19472152.449   104162908.389 8      1689.673          50.000
  19472155.069    81015603.872 8      1314.191          51.000
 11 11 19  0  0 30.0000000  0 18G 1G28R22G19R12G 7G 3G 6R 6R24R 5G26-0.000381360
                                G11G16R13R14G 8R23
  23794424.261    23794425.041   125040576.815 4      3669.129          24.000
  23794432.791    97434221.225 3      2859.046          23.000
  23402498.449    23402498.509   122980973.589 4      2731.713          25.000
  23402498.279    95829358.500 4      2128.610          26.000
  20141642.236    20141642.176   107517484.714 8     -2706.468          48.000
  20141646.636    83624706.829 1     -2105.026           1.000
  20584599.609    20584598.589   108172833.381 7     -1426.501          45.000
  20584598.929    84290533.773 7     -1111.559          44.000
  20869652.436    20869652.326   111481921.125 7     -3404.666          46.000
  20869656.556    86708199.533 2     -2648.064          13.000
  20367330.806    20367330.686   107031060.553 7     -1087.153          45.000
  20367331.346    83400838.501 7      -847.128          44.000
  22196301.045    22196301.185   116642373.718 4     -3342.372          29.000
  22196304.385    90890166.202 4     -2604.448          29.000
  23890335.237    23890335.007   125544570.783 3     -3355.685          23.000
  23890338.157    97826951.963 4     -2614.825          24.000
  23883326.115    23883323.395   127445994.361 5      2417.790          34.000
  23883324.875    99124679.377 1      1880.560           8.000
  22925234.923    22925234.933   122591534.718 6      4236.121          40.000
  22925236.803    95348999.033 2      3294.751          15.000
  23334085.705    23334086.485   124734069.168 6      -699.349          38.000
  23334090.375    97015414.347 1      -543.957           2.000
  23188096.306    23188096.286   121854289.887 4      1141.963          24.000
  23188098.386    94951391.534 4       889.834          24.000
  21881613.734    21881612.664   114988692.584 5      2908.868          33.000
  21881614.104    89601568.493 5      2266.648          33.000
  24830708.929    24830710.969   130486242.665 2     -3295.281          14.000
  24830713.109   101677593.475 2     -2567.757          14.000
  19148858.657    19148858.027   102253836.888 8       432.580          50.000
  19148860.147    79530777.941 1       336.449           6.000
  21645612.021    21645612.101   115383299.185 7      3760.335          43.000
  21645615.641    89742586.068 3      2924.704          23.000
  20642124.618    20642124.208   108475104.653 7      1536.455          42.000
  20642125.928    84526067.447 7      1197.237          42.000
  19462740.292    19462739.332   104112553.492 8      1667.307          51.000
  19462741.972    80976438.950 2      1296.789          13.000
 11 11 19  0  1  0.0000000  0 18G 1G28R22G19R12G 7G 3G 6R 6R24R 5G26-0.000381360
                                G11G16R13R14G 8R23
  23773491.821    23773491.181   124930563.828 3      3665.041          23.000
  23773497.251    97348496.852 4      2855.862          24.000
  23386912.278    23386912.128   122899072.997 4      2728.409          25.000
  23386912.768    95765539.883 4      2126.040          25.000
  20156899.760                                       -2723.261

  20592789.790    20592788.590   108215875.938 7     -1443.010          44.000
  20592789.500    84324073.411 7     -1124.425          44.000
  20888815.893    20888815.333   111584288.057 7     -3419.690          46.000
  20888821.403    86787818.183 1     -2659.747           5.000
  20373592.175    20373592.145   107063965.997 7     -1106.553          45.000
  20373592.975    83426479.078 7      -862.248          44.000
  22215406.104    22215405.514   116742761.893 4     -3350.122          29.000
  22215408.014    90968390.673 4     -2610.494          29.000
  23909501.412    23909502.132   125645294.294 3     -3359.286          23.000
  23909504.222    97905437.680 3     -2617.620          23.000
  23869785.081    23869784.311   127373747.689 5      2398.551          34.000
  23869785.511    99068487.497 1      1865.441           1.000
  22901490.533    22901490.193   122464555.072 6      4229.243          40.000
  22901490.613    95250237.069 2      3289.435          12.000
  23338082.979    23338082.579   124755432.177 6      -724.794          38.000
  23338085.029    97032029.990 1      -563.743           4.000
  23181640.642    23181639.852   121820363.836 4      1119.766          24.000
  23181642.732    94924955.629 4       872.545          24.000
  21865044.364    21865044.244   114901623.526 5      2895.713          33.000
  21865045.324    89533722.466 5      2256.396          33.000
  24849526.658    24849525.498   130585124.883 2     -3296.816          14.000
  24849530.548   101754644.358 2     -2568.925          14.000
  19146493.843    19146493.433   102241209.968 8       409.209          50.000
  19146495.153    79520956.989 2       318.267          13.000
  21624472.893    21624473.283   115270621.391 7      3751.551          43.000
  21624478.233    89654947.779 3      2917.874          20.000
  20633403.801    20633403.301   108429276.500 7      1518.717          43.000
  20633405.131    84490357.197 7      1183.415          43.000
  19453451.874    19453451.974   104062872.182 8      1644.784          51.000
  19453454.304    80937797.928 2      1279.277          12.000
