     2.11           OBSERVATION DATA    G (GPS)             RINEX VERSION / TYPE
teqc  2013Mar15     Grigory Steblov     20161216 00:07:07UTCPGM / RUN BY / DATE
Linux 2.4.21-27.ELsmp|Opteron|gcc -static|Linux x86_64|=+   COMMENT
BIT 2 OF LLI FLAGS DATA COLLECTED UNDER A/S CONDITION       COMMENT
IRKM                                                        MARKER NAME
12313M001                                                   MARKER NUMBER
Dmitry Frolov       RDAAC                                   OBSERVER / AGENCY
LP01756             ASHTECH Z-XII3      CD00                REC # / TYPE / VERS
178                 AOAD/M_T        NONE                    ANT # / TYPE
  -968332.3892  3794425.4085  5018167.7056                  APPROX POSITION XYZ
        0.1280        0.0000        0.0000                  ANTENNA: DELTA H/E/N
     1     1                                                WAVELENGTH FACT L1/2
     7    L1    L2    P1    P2    C1    S1    S2            # / TYPES OF OBSERV
                                                            COMMENT
This data is provided as a public service by                COMMENT
Regional GPS Data Acquisition Analysis Center (RDAAC)       COMMENT
Geophysical Service RAS (GS RAS)                            COMMENT
The data aquisition software is provided by NASA/JPL        COMMENT
No warranty is expressed or implied regarding suitability   COMMENT
for use. For further information, contact:                  COMMENT
Grigory M. Steblov, GS RAS (steblov@gps.gsras.ru)           COMMENT
Dave Stowers, NASA/JPL m/s 238-600                          COMMENT
4800 Oak Grove Drive, Pasadena CA 91109 USA                 COMMENT
                                                            COMMENT
 SNR is mapped to RINEX snr flag value [0-9]                COMMENT
  L1 & L2: min(max(int(snr_dBHz/6), 0), 9)                  COMMENT
pseudorange smoothing corrections not applied               COMMENT
  2016    12    15     0     0    0.0000000     GPS         TIME OF FIRST OBS
                                                            END OF HEADER
 16 12 15  0  0  0.0000000  0  9G05G02G25G19G17G23G06G12G09
  -8579724.35747  -6656055.95446  23103667.0914   23103671.2004   23103666.637
        42.3004         39.9004
 -20374126.28448 -15855741.11747  20814265.4134   20814266.6094   20814265.816
        49.8004         47.3004
 -10562649.78447  -8218721.65846  22859988.8264   22859994.1394   22859988.861
        43.2004         40.6004
  -8338691.52947  -6481349.00147  22594572.3864   22594575.0414   22594573.361
        45.3004         42.5004
  -5710386.05146  -4434299.74546  23647881.3774   23647886.4094   23647881.156
        41.1004         38.6004
  -6241662.31246  -4847147.21646  24132973.3294   24132974.4454   24132974.115
        40.3004         37.8004
 -17146906.75748 -13341581.64448  20686073.0834   20686078.6574   20686072.255
        50.7004         48.0004
 -16084720.29347 -12506602.88247  21752844.7754   21752847.5744   21752844.953
        46.9004         44.2004
  -5638942.08147  -4380168.10046  23077049.7484   23077055.1684   23077049.235
        42.9004         40.0004
 16 12 15  0  0 30.0000000  0  9G05G02G25G19G17G23G06G12G09
  -8687332.34547  -6739906.31246  23083189.7114   23083193.4274   23083188.855
        42.3004         39.7004
 -20404310.06948 -15879260.94647  20808521.5974   20808522.8084   20808521.982
        49.8004         47.3004
 -10595155.95447  -8244051.13346  22853802.9884   22853808.9524   22853802.706
        43.2004         40.6004
  -8244264.52147  -6407769.52847  22612541.8164   22612544.4044   22612542.827
        45.1004         42.3004
  -5612492.29246  -4358018.89946  23666510.4484   23666514.2754   23666510.236
        41.5004         39.0004
  -6225536.43346  -4834581.57946  24136041.9564   24136042.6794   24136042.376
        40.1004         37.6004
 -17104628.86248 -13308637.82747  20694118.0774   20694123.8414   20694117.500
        50.5004         47.8004
 -16041639.99947 -12473033.83847  21761042.6764   21761045.7754   21761042.181
        46.9004         44.0004
  -5683480.30447  -4414873.20546  23068574.2824   23068579.2654   23068574.370
        42.7004         40.0004
 16 12 15  0  1  0.0000000  0  9G05G02G25G19G17G23G06G12G09
  -8794703.34547  -6823572.01546  23062758.2054   23062760.8744   23062757.807
        42.5004         39.9004
 -20434189.67548 -15902543.75247  20802835.9194   20802837.0354   20802836.418
        49.8004         47.2004
 -10627053.80447  -8268906.59946  22847732.9394   22847739.3894   22847733.371
        43.2004         40.7004
  -8149565.25247  -6333977.90447  22630562.3364   22630565.4284   22630562.875
        45.1004         42.3004
  -5514388.82746  -4281574.67146  23685178.3754   23685182.3524   23685179.550
        41.3004         38.5004
  -6208874.12046  -4821597.95146  24139214.0184   24139214.3434   24139214.356
        40.3004         37.9004
 -17062002.82348 -13275422.73347  20702229.2764   20702235.4614   20702228.737
        50.5004         47.7004
 -15997969.35847 -12439004.77047  21769353.2594   21769355.9724   21769353.156
        46.9004         44.0004
  -5727498.55547  -4449173.12746  23060198.0274   23060203.4844   23060197.659
        42.7004         40.0004
 16 12 15  0  1 30.0000000  0  9G05G02G25G19G17G23G06G12G09
  -8901835.45147  -6907051.58046  23042372.0614   23042374.7334   23042371.781
        42.7004         40.0004
 -20463764.62848 -15925589.16547  20797207.9574   20797208.6694   20797208.474
        49.8004         47.3004
 -10658342.01047  -8293287.02446  22841779.4064   22841784.9824   22841779.308
        43.4004         40.7004
  -8054595.08947  -6259975.19747  22648634.9854   22648637.1364   22648635.766
        45.1004         42.3004
  -5416076.92246  -4204968.01946  23703886.9744   23703889.5514   23703886.663
        40.6004         37.9004
  -6191676.09146  -4808196.88946  24142484.9194   24142487.8164   24142485.711
        40.6004         38.1004
 -17019029.37848 -13241936.93647  20710407.0484   20710412.9774   20710406.397
        50.3004         47.7004
 -15953709.93647 -12404516.91447  21777775.6714   21777778.1254   21777774.866
        46.7004         43.9004
  -5770994.58147  -4483066.12946  23051920.8244   23051926.0354   23051920.308
        42.5004         40.0004
 16 12 15  0  2  0.0000000  0  9G05G02G25G19G17G23G06G12G09
  -9008726.44347  -6990343.24846  23022030.7044   23022033.8284   23022030.108
        42.7004         40.2004
 -20493034.50648 -15948396.86647  20791638.0514   20791638.9614   20791638.468
        50.0004         47.5004
 -10689019.50147  -8317191.57546  22835941.1354   22835947.4254   22835941.575
        43.4004         40.7004
  -7959355.54647  -6185762.58147  22666758.7304   22666760.9444   22666759.887
        45.1004         42.5004
  -5317557.62546  -4128199.77046  23722633.9954   23722637.0604   23722632.633
        40.3004         37.4004
  -6173942.23046  -4794378.31346  24145860.9614   24145861.0084   24145860.798
        40.8004         38.5004
 -16975709.45448 -13208181.16047  20718650.7704   20718656.5504   20718650.220
        50.5004         47.8004
 -15908863.63347 -12369571.76347  21786309.5044   21786312.0504   21786309.375
        46.9004         44.0004
  -5813966.48547  -4516550.72946  23043743.2214   23043749.4064   23043742.842
        42.5004         40.0004
 16 12 15  0  2 30.0000000  0  9G05G02G25G19G17G23G06G12G09
  -9115373.99747  -7073445.22646  23001736.5444   23001739.9474   23001735.912
        42.9004         40.2004
 -20521999.18748 -15970966.74647  20786126.0204   20786127.0224   20786126.707
        50.0004         47.5004
 -10719085.22147  -8340619.40946  22830220.1754   22830226.6944   22830220.041
        43.4004         40.9004
  -7863848.34247  -6111341.41247  22684932.6724   22684935.7034   22684933.441
        45.3004         42.3004
  -5218832.91746  -4051271.44646  23741420.9544   23741424.9944   23741420.460
        40.1004         37.8004
  -6155673.25346  -4780142.72646  24149337.4824   24149337.6574   24149337.876
        40.9004         38.6004
 -16932044.00148 -13174156.13847  20726959.9414   20726965.8534   20726959.589
        50.5004         47.8004
 -15863432.58647 -12334170.94747  21794954.6174   21794957.0184   21794954.231
        46.7004         44.0004
  -5856412.33447  -4549625.41846  23035665.8884   23035672.3784   23035666.177
        42.7004         40.2004
 16 12 15  0  3  0.0000000  0  9G05G02G25G19G17G23G06G12G09
  -9221776.01547  -7156355.89046  22981488.8674   22981492.4214   22981488.691
        42.9004         40.2004
 -20550658.10248 -15993298.36847  20780672.7324   20780673.4844   20780673.050
        50.0004         47.5004
 -10748538.13347  -8363569.72846  22824615.3404   22824621.4624   22824615.385
        43.6004         40.9004
  -7768075.27247  -6036713.07047  22703157.8134   22703160.7294   22703158.474
        45.1004         42.3004
  -5119904.09146  -3974184.06946  23760246.8504   23760250.3564   23760247.296
        40.3004         37.9004
  -6136869.47246  -4765490.41946  24152915.2314   24152916.6194   24152915.592
        41.1004         38.6004
 -16888034.00048 -13139862.63447  20735334.7754   20735340.4904   20735334.192
        50.5004         47.8004
 -15817418.07947 -12298315.50047  21803710.7244   21803713.8554   21803710.576
        46.7004         44.0004
  -5898330.26447  -4582288.73746  23027689.0794   23027695.0394   23027689.161
        42.7004         40.2004
 16 12 15  0  3 30.0000000  0  9G05G02G25G19G17G23G06G12G09
  -9327930.02647  -7239073.30146  22961287.9414   22961291.8664   22961286.637
        42.7004         40.0004
 -20579011.01648 -16015391.55247  20775277.2464   20775278.1174   20775277.621
        50.0004         47.5004
 -10777377.13847  -8386041.67946  22819127.6474   22819133.5764   22819127.829
        43.6004         40.9004
  -7672037.41647  -5961878.40647  22721432.9454   22721436.2684   22721434.080
        45.1004         42.5004
  -5020772.52846  -3896938.72346  23779109.9604   23779114.8354   23779109.276
        40.3004         37.8004
  -6117531.09846  -4750421.55546  24156595.8144   24156596.7554   24156595.845
        41.1004         38.5004
 -16843680.30548 -13105301.31647  20743775.0604   20743780.6754   20743774.433
        50.3004         47.7004
 -15770822.01647 -12262006.88647  21812577.6784   21812580.5024   21812577.363
        46.7004         43.9004
  -5939718.31647  -4614539.16546  23019813.1484   23019818.8844   23019813.594
        42.9004         40.2004
 16 12 15  0  4  0.0000000  0  9G05G02G25G19G17G23G06G12G09
  -9433834.14247  -7321595.99046  22941135.4304   22941138.9204   22941134.906
        42.9004         40.2004
 -20607057.66948 -16037246.08747  20769940.1734   20769940.9674   20769940.413
        50.0004         47.5004
 -10805601.24347  -8408034.49346  22813757.2584   22813762.3724   22813756.763
        43.6004         41.1004
  -7575736.28947  -5886838.59147  22739759.4524   22739761.8254   22739760.016
        45.3004         42.5004
  -4921439.65246  -3819536.52946  23798012.6914   23798017.6694   23798012.784
        40.3004         37.9004
  -6097659.10046  -4734936.87546  24160376.5964   24160377.9734   24160377.449
        41.1004         38.5004
 -16798983.83548 -13070472.90447  20752280.5064   20752286.2544   20752279.971
        50.3004         47.8004
 -15723646.06347 -12225246.40847  21821554.8164   21821557.7794   21821554.939
        46.7004         43.9004
  -5980574.58647  -4646375.21346  23012039.3844   23012043.9954   23012038.403
        43.0004         40.4004
 16 12 15  0  4 30.0000000  0  9G05G02G25G19G17G23G06G12G09
  -9539486.05547  -7403922.15146  22921030.3254   22921034.1504   22921030.804
        43.0004         40.4004
 -20634797.28148 -16058861.36547  20764661.2934   20764662.2324   20764661.815
        50.0004         47.5004
 -10833209.52547  -8429547.44546  22808503.0364   22808509.0324   22808502.902
        43.6004         40.9004
  -7479173.71547  -5811595.05447  22758134.1504   22758137.0844   22758134.911
        45.1004         42.1004
  -4821906.65746  -3741978.40646  23816953.4094   23816957.9794   23816952.739
        40.6004         38.3004
  -6077253.78546  -4719036.63446  24164260.2654   24164260.1394   24164260.067
        40.8004         38.1004
 -16753945.56448 -13035378.14547  20760850.8744   20760856.7714   20760850.053
        50.3004         47.5004
 -15675892.15447 -12188035.58347  21830642.5204   21830644.9054   21830642.490
        46.7004         43.9004
  -6020897.27847  -4677795.48846  23004365.8204   23004371.2184   23004366.246
        43.0004         40.4004
 16 12 15  0  5  0.0000000  0  9G05G02G25G19G17G23G06G12G09
  -9644883.42147  -7486049.96546  22900973.6834   22900977.7564   22900973.220
        43.0004         40.4004
 -20662229.42248 -16080237.06247  20759441.1724   20759441.9724   20759441.670
        50.0004         47.5004
 -10860200.76447  -8450579.58446  22803366.9244   22803372.6624   22803367.051
        43.6004         40.9004
  -7382350.70147  -5736148.57946  22776558.1304   22776561.4784   22776559.482
        44.8004         41.9004
  -4722175.15746  -3664265.58846  23835933.0314   23835935.8824   23835932.463
        40.9004         38.6004
  -6056315.44246  -4702721.05146  24168244.2584   24168244.9054   24168244.815
        40.8004         38.3004
 -16708566.18648 -13000017.59447  20769486.3264   20769492.2084   20769485.765
        50.3004         47.7004
 -15627562.28247 -12150375.95747  21839838.7254   21839842.1064   21839838.481
        46.5004         43.7004
  -6060684.28847  -4708798.34646  22996794.6094   22996799.9034   22996794.387
        43.0004         40.6004
 16 12 15  0  5 30.0000000  0  9G05G02G25G19G17G23G06G12G09
  -9750024.32747  -7567977.94146  22880965.8604   22880969.6334   22880964.912
        43.0004         40.6004
 -20689354.34348 -16101373.36547  20754279.3764   20754280.3674   20754279.975
        50.0004         47.5004
 -10886574.24447  -8471130.35446  22798347.7354   22798353.8984   22798348.351
        43.6004         40.9004
  -7285269.20947  -5660500.68146  22795032.5864   22795035.1274   22795033.460
        44.8004         41.9004
  -4622246.89546  -3586399.45246  23854947.7274   23854951.4254   23854946.585
        40.9004         38.5004
  -6034845.22246  -4685990.99346  24172329.5144   24172330.5704   24172330.114
        40.6004         38.1004
 -16662846.84648 -12964392.13947  20778186.4784   20778192.4684   20778185.927
        50.3004         47.7004
 -15578658.58947 -12112269.19147  21849145.3784   21849148.1574   21849145.040
        46.5004         43.9004
  -6099934.03547  -4739382.55746  22989325.7184   22989330.8854   22989325.409
        43.2004         40.7004
 16 12 15  0  6  0.0000000  0  9G05G02G25G19G17G23G06G12G09
  -9854906.52447  -7649704.32746  22861007.6714   22861011.5774   22861007.366
        43.2004         40.7004
 -20716171.47848 -16122269.83547  20749176.4324   20749177.5294   20749176.906
        50.0004         47.5004
 -10912329.10147  -8491199.07546  22793446.5714   22793453.1774   22793446.852
        43.6004         40.9004
  -7187930.74447  -5584652.53746  22813555.5794   22813558.4104   22813556.046
        44.6004         41.8004
  -4522123.19246  -3508381.01846  23874000.1034   23874004.0814   23873999.946
        40.9004         38.5004
  -6012843.07946  -4668846.45446  24176516.8794   24176517.9054   24176517.121
        40.4004         37.9004
 -16616788.51248 -12928502.53447  20786951.0934   20786957.1444   20786950.246
        50.3004         47.7004
 -15529183.37947 -12073717.09747  21858560.1474   21858562.9954   21858559.799
        46.5004         43.9004
  -6138644.76847  -4769546.76346  22981959.6564   22981965.0284   22981959.376
        43.6004         41.1004
 16 12 15  0  6 30.0000000  0  9G05G02G25G19G17G23G06G12G09
  -9959527.77047  -7731227.35746  22841099.4134   22841102.9894   22841098.869
        43.2004         40.7004
 -20742680.23548 -16142926.00447  20744131.8664   20744132.7674   20744132.531
        50.2004         47.7004
 -10937464.33547  -8510784.98246  22788663.8734   22788670.1934   22788663.949
        43.6004         41.1004
  -7090336.79547  -5508605.31946  22832127.0184   22832130.1614   22832127.442
        44.6004         41.9004
  -4421805.32746  -3430211.27846  23893090.8484   23893094.6774   23893090.211
        40.6004         37.9004
  -5990309.88246  -4651288.11946  24180804.7284   24180806.1624   24180804.400
        40.4004         38.1004
 -16570392.00948 -12892349.41447  20795779.8454   20795786.0504   20795779.498
        50.2004         47.7004
 -15479137.76547 -12034720.52147  21868083.2954   21868086.2354   21868083.267
        46.5004         43.9004
  -6176814.55247  -4799289.43846  22974695.9944   22974701.3804   22974696.168
        43.6004         41.1004
 16 12 15  0  7  0.0000000  0  9G05G02G25G19G17G23G06G12G09
 -10063885.94047  -7812545.40846  22821240.4244   22821244.3174   22821240.042
        43.4004         40.9004
 -20768880.62848 -16163341.89847  20739145.9454   20739146.9234   20739146.470
        50.2004         47.7004
 -10961979.24847  -8529887.51846  22783999.2764   22784005.1244   22783999.273
        43.7004         41.1004
  -6992489.27547  -5432360.52846  22850747.0414   22850749.8354   22850747.835
        44.6004         41.9004
  -4321294.89146  -3351891.48946  23912217.6234   23912220.5444   23912217.391
        39.7004         37.1004
  -5967246.09246  -4633316.33346  24185192.3234   24185194.2134   24185193.035
        40.3004         37.8004
 -16523658.42348 -12855933.63247  20804673.0194   20804678.9394   20804672.499
        50.2004         47.7004
 -15428523.67747 -11995280.98147  21877714.7334   21877717.7484   21877714.663
        46.5004         43.7004
  -6214441.82747  -4828609.37946  22967535.0894   22967540.9884   22967535.230
        43.6004         40.9004
 16 12 15  0  7 30.0000000  0  9G05G02G25G19G17G23G06G12G09
 -10167978.71647  -7893656.66746  22801432.0734   22801435.5084   22801431.315
        43.4004         40.9004
 -20794772.16248 -16183517.12247  20734219.1474   20734220.0294   20734219.647
        50.2004         47.7004
 -10985872.84147  -8548505.89546  22779452.0194   22779458.3694   22779452.091
        43.7004         41.1004
  -6894389.36847  -5355919.06546  22869415.2644   22869417.2414   22869416.309
        44.6004         41.8004
  -4220593.23046  -3273422.70846  23931380.4364   23931383.4014   23931379.941
        39.2004         36.7004
  -5943652.32446  -4614931.58646  24189682.8654   24189683.4574   24189683.326
        40.1004         37.8004
 -16476588.54448 -12819255.81447  20813630.0964   20813636.0534   20813629.701
        50.2004         47.5004
 -15377343.34447 -11955400.20647  21887454.1464   21887457.4924   21887453.742
        46.3004         43.7004
  -6251524.67047  -4857505.08546  22960477.9454   22960484.7784   22960478.505
        43.4004         40.7004
 16 12 15  0  8  0.0000000  0  9G05G02G25G19G17G23G06G12G09
 -10271804.29047  -7974559.71246  22781674.7134   22781678.7954   22781673.793
        43.6004         40.9004
 -20820354.19648 -16203451.17747  20729351.1824   20729352.0104   20729351.752
        50.2004         47.7004
 -11009144.21947  -8566639.45246  22775023.9904   22775029.6124   22775023.950
        43.7004         41.2004
  -6796038.71447  -5279282.21846  22888130.8244   22888132.4754   22888131.618
        44.6004         41.9004
  -4119701.63746  -3194805.89946  23950579.8884   23950583.1804   23950579.775
        39.2004         37.1004
  -5919529.20746  -4596134.34046  24194274.3324   24194274.3134   24194274.504
        40.3004         38.1004
 -16429183.24148 -12782316.63047  20822651.3284   20822656.7704   20822650.580
        50.2004         47.5004
 -15325599.13247 -11915080.05547  21897301.3704   21897303.3184   21897300.840
        46.3004         43.7004
  -6288061.26647  -4885975.14146  22953526.4224   22953531.8704   22953525.990
        43.4004         40.7004
 16 12 15  0  8 30.0000000  0  9G05G02G25G19G17G23G06G12G09
 -10375360.12447  -8055252.56646  22761968.9214   22761973.1554   22761969.487
        43.7004         41.2004
 -20845626.62548 -16223143.97447  20724541.7584   20724542.7934   20724542.304
        50.2004         47.7004
 -11031792.65347  -8584287.58446  22770713.6894   22770719.8884   22770714.213
        43.7004         41.1004
  -6697438.87547  -5202451.19946  22906893.2554   22906896.1504   22906894.390
        44.6004         41.9004
  -4018621.99146  -3116042.54346  23969812.7324   23969818.1274   23969812.352
        39.2004         37.1004
  -5894877.30246  -4576925.05346  24198963.6854   24198966.8064   24198964.282
        40.3004         37.9004
 -16381443.45648 -12745116.79747  20831735.5194   20831741.5934   20831734.986
        50.2004         47.5004
 -15273293.07547 -11874322.10047  21907254.2784   21907256.9064   21907253.956
        46.3004         43.7004
  -6324049.99747  -4914018.29446  22946678.0934   22946683.8354   22946677.426
        43.6004         41.1004
 16 12 15  0  9  0.0000000  0  9G05G02G25G19G17G23G06G12G09
 -10478644.23147  -8135733.67946  22742314.3794   22742318.3464   22742314.823
        43.7004         41.1004
 -20870588.99848 -16242595.17547  20719791.5284   20719792.6704   20719792.011
        50.2004         47.7004
 -11053817.34547  -8601449.68646  22766522.3974   22766528.7274   22766522.706
        43.7004         41.1004
  -6598591.39247  -5125427.21546  22925704.0664   22925706.2564   22925704.579
        44.6004         41.9004
  -3917355.52746  -3037133.62046  23989082.4854   23989088.9154   23989082.446
        39.4004         36.9004
  -5869697.54346  -4557304.47246  24203756.5344   24203757.5864   24203756.889
        40.1004         37.8004
 -16333370.15048 -12707657.08947  20840883.8694   20840889.7464   20840883.044
        50.2004         47.5004
 -15220426.37047 -11833127.27647  21917314.5484   21917317.2684   21917314.269
        46.3004         43.5004
  -6359489.14847  -4941633.21046  22939933.8664   22939939.8384   22939933.434
        43.7004         41.1004
 16 12 15  0  9 30.0000000  0  9G05G02G25G19G17G23G06G12G09
 -10581654.68647  -8216001.56946  22722711.7604   22722715.1934   22722711.520
        43.7004         40.9004
 -20895241.05948 -16261804.57247  20715100.6884   20715101.4934   20715101.156
        50.2004         47.7004
 -11075217.61747  -8618125.22846  22762450.5894   22762456.6894   22762450.490
        43.9004         41.2004
  -6499497.66447  -5048211.35546  22944560.9204   22944563.3554   22944561.376
        44.6004         41.9004
  -3815903.73346  -2958080.32046  24008390.0374   24008395.0334   24008389.733
        39.6004         37.4004
  -5843990.50246  -4537272.97746  24208648.9744   24208648.0004   24208648.814
        39.9004         37.4004
 -16284964.28548 -12669938.24247  20850095.3494   20850100.9494   20850094.721
        50.2004         47.5004
 -15167001.60347 -11791497.59747  21927480.9914   21927484.2724   21927480.660
        46.3004         43.7004
  -6394377.15247  -4968818.66046  22933295.1754   22933300.8544   22933294.684
        43.7004         41.1004
 16 12 15  0 10  0.0000000  0  9G05G02G25G19G17G23G06G12G09
 -10684389.03147  -8296054.29846  22703161.9904   22703165.9634   22703161.386
        43.7004         41.1004
 -20919582.32148 -16280771.77847  20710468.7074   20710469.6154   20710469.012
        50.2004         47.7004
 -11095992.80247  -8634313.68146  22758497.0534   22758503.0304   22758497.099
        43.9004         41.2004
  -6400159.63447  -4970805.11746  22963463.5904   22963466.3934   22963464.935
        44.4004         41.6004
  -3714267.97046  -2878883.67146  24027731.6574   24027735.2184   24027730.002
        39.9004         37.8004
  -5817756.85846  -4516831.16246  24213640.1934   24213641.3954   24213640.587
        39.6004         37.1004
 -16236226.85048 -12631961.03047  20859369.7154   20859375.5344   20859369.218
        50.2004         47.5004
 -15113021.10747 -11749434.88447  21937753.5154   21937756.3674   21937753.176
        46.3004         43.7004
  -6428712.37547  -4995573.36246  22926761.3434   22926766.6944   22926760.937
        43.7004         40.9004
 16 12 15  0 10 30.0000000  0  9G05G02G25G19G17G23G06G12G09
 -10786845.14447  -8375890.23346  22683665.6424   22683668.8584   22683665.416
        43.9004         41.2004
 -20943612.64548 -16299496.70647  20705895.5324   20705896.6204   20705896.094
        50.2004         47.7004
 -11116142.02447  -8650014.38146  22754662.9794   22754669.2584   22754662.820
        43.9004         41.2004
  -6300578.64647  -4893209.57246  22982413.6244   22982416.4224   22982413.972
        44.2004         41.4004
  -3612449.99046  -2799545.03146  24047107.2004   24047110.2074   24047107.409
        40.4004         38.1004
  -5790997.43446  -4495979.66946  24218732.4694   24218734.6844   24218732.014
        39.4004         37.1004
 -16187158.62248 -12593726.05047  20868706.7614   20868712.7464   20868706.405
        50.0004         47.3004
 -15058486.78947 -11706940.61447  21948130.3914   21948133.7074   21948130.087
        46.3004         43.5004
  -6462493.06947  -5021895.96346  22920332.9424   22920338.7094   22920332.643
        43.7004         41.1004
 16 12 15  0 11  0.0000000  0  9G05G02G25G19G17G23G06G12G09
 -10889021.01447  -8455507.79446  22664222.3264   22664226.0154   22664222.478
        43.9004         41.2004
 -20967331.52148 -16317978.94847  20701381.9674   20701383.1194   20701382.599
        50.2004         47.7004
 -11135664.78447  -8665226.92346  22750947.4254   22750953.4534   22750947.803
        43.9004         41.2004
  -6200756.45747  -4815426.07046  23001409.0854   23001411.8984   23001409.891
        44.1004         41.2004
  -3510451.33946  -2720065.58846  24066515.9014   24066519.6644   24066514.950
        40.6004         38.1004
  -5763713.10646  -4474719.16246  24223924.9524   24223926.0814   24223924.793
        39.4004         36.7004
 -16137760.63848 -12555234.12347  20878106.8744   20878112.7564   20878106.584
        50.0004         47.3004
 -15003400.69647 -11664016.39747  21958613.2504   21958615.8684   21958613.175
        46.3004         43.5004
  -6495717.70847  -5047785.27146  22914010.6434   22914016.1244   22914010.365
        43.7004         41.2004
 16 12 15  0 11 30.0000000  0  9G05G02G25G19G17G23G06G12G09
 -10990914.26547  -8534905.12546  22644832.8264   22644836.8564   22644832.500
        44.1004         41.6004
 -20990738.40948 -16336218.08147  20696928.0974   20696928.8034   20696928.452
        50.3004         47.7004
 -11154560.37747  -8679950.76446  22747352.2184   22747357.9564   22747352.115
        43.9004         41.2004
  -6100694.30547  -4737455.58746  23020450.7844   23020452.8904   23020451.384
        44.1004         41.2004
  -3408273.26446  -2640446.34946  24085960.3474   24085964.0564   24085959.536
        40.4004         37.9004
  -5735904.37446  -4453050.00346  24229215.2524   24229216.6664   24229216.208
        39.0004         36.6004
 -16088033.82248 -12516485.96247  20887569.7074   20887575.5584   20887569.107
        49.8004         47.2004
 -14947765.07747 -11620663.98247  21969200.8444   21969203.1644   21969200.720
        46.2004         43.3004
  -6528384.69847  -5073240.06146  22907793.3934   22907800.3404   22907793.512
        43.7004         41.2004
 16 12 15  0 12  0.0000000  0  9G05G02G25G19G17G23G06G12G09
 -11092523.05147  -8614080.80146  22625497.3424   22625501.6314   22625496.958
        44.2004         41.8004
 -21013833.15948 -16354213.99047  20692533.1364   20692534.0034   20692533.709
        50.2004         47.7004
 -11172828.23247  -8694185.45646  22743876.0944   22743882.0774   22743876.147
        43.9004         41.4004
  -6000394.08647  -4659299.59646  23039536.7194   23039538.9374   23039537.706
        43.9004         41.2004
  -3305917.53746  -2560688.68146  24105437.7034   24105442.8644   24105436.538
        39.9004         37.4004
  -5707571.95746  -4430972.79546  24234606.1154   24234608.8164   24234606.447
        38.5004         36.2004
 -16037979.12648 -12477482.30847  20897094.7554   20897100.7124   20897094.063
        49.8004         47.0004
 -14891582.56247 -11576885.40547  21979891.2744   21979894.1114   21979891.384
        46.2004         43.3004
  -6560492.53347  -5098259.15146  22901684.3334   22901690.6924   22901684.335
        43.9004         41.2004
 16 12 15  0 12 30.0000000  0  9G05G02G25G19G17G23G06G12G09
 -11193845.27247  -8693033.17046  22606216.5254   22606219.9044   22606215.880
        44.2004         41.8004
 -21036615.36748 -16371966.35747  20688197.9344   20688198.8584   20688198.509
        50.2004         47.7004
 -11190467.64247  -8707930.45146  22740519.4074   22740525.2944   22740519.005
        43.9004         41.2004
  -5899857.35847  -4580959.31946  23058668.6904   23058671.1674   23058668.784
        44.1004         41.4004
  -3203385.26046  -2480793.44546  24124947.2054   24124952.2894   24124946.779
        39.2004         36.4004
  -5678716.97146  -4408488.39346  24240099.6874   24240099.5574   24240100.014
        38.7004         36.4004
 -15987597.42348 -12438223.84247  20906681.9444   20906688.0284   20906681.225
        49.6004         47.0004
 -14834854.47547 -11532681.70847  21990686.4764   21990689.3144   21990686.031
        46.0004         43.3004
  -6592039.56047  -5122841.23146  22895680.6974   22895686.7594   22895680.958
        43.7004         41.2004
 16 12 15  0 13  0.0000000  0 10G05G02G29G25G19G17G23G06G12G09
 -11294878.82847  -8771760.61846  22586990.4274   22586994.0404   22586989.949
        44.4004         41.8004
 -21059085.02548 -16389475.18647  20683921.9944   20683922.7504   20683922.623
        50.3004         47.7004
  -1496114.67246  -1149442.44446  24612953.1204   24612955.7844   24612953.090
        39.0004         36.6004
 -11207478.24947  -8721185.47446  22737281.8234   22737287.9284   22737281.875
        43.9004         41.2004
  -5799085.79747  -4502436.05346  23077843.8404   23077847.3344   23077844.952
        43.9004         41.2004
  -3100678.35546  -2400762.13446  24144491.6524   24144496.9994   24144491.690
        38.7004         36.4004
  -5649340.27246  -4385597.45546  24245689.3174   24245689.9304   24245689.821
        38.5004         36.2004
 -15936889.82848 -12398711.44147  20916331.6064   20916337.1194   20916331.063
        49.8004         47.0004
 -14777583.90647 -11488055.30247  22001584.7414   22001587.4124   22001584.528
        46.2004         43.3004
  -6623024.51147  -5146985.33146  22889784.2654   22889790.8134   22889784.604
        43.7004         41.1004
 16 12 15  0 13 30.0000000  0 10G05G02G29G25G19G17G23G06G12G09
 -11395621.43847  -8850261.34946  22567820.0164   22567822.7274   22567819.460
        44.4004         41.8004
 -21081241.26448 -16406739.78247  20679705.5934   20679706.8234   20679706.177
        50.2004         47.7004
  -1603553.78446  -1233161.21246  24592507.7604   24592510.5694   24592507.348
        38.5004         36.0004
 -11223859.32347  -8733949.94946  22734164.9234   22734170.7184   22734164.846
        43.9004         41.2004
  -5698080.91147  -4423730.97446  23097064.8604   23097067.9054   23097065.942
        43.7004         41.1004
  -2997797.95046  -2320595.61346  24164070.0034   24164072.9824   24164069.821
        38.5004         36.4004
  -5619442.24546  -4362300.31245  24251377.9094   24251377.8264   24251377.596
        38.2004         35.9004
 -15885857.07048 -12358945.66047  20926042.8954   20926048.5624   20926042.178
        49.6004         47.0004
 -14719772.46447 -11443007.43647  22012586.2754   22012589.0474   22012586.161
        46.2004         43.3004
  -6653445.62947  -5170690.08146  22883995.6734   22884001.6734   22883995.024
        43.7004         41.1004
 16 12 15  0 14  0.0000000  0 10G05G02G29G25G19G17G23G06G12G09
 -11496071.05247  -8928533.76246  22548704.0844   22548707.8244   22548704.688
        44.6004         41.9004
 -21103084.20348 -16423760.26147  20675549.3274   20675550.1674   20675549.571
        50.3004         47.8004
  -1710923.57346  -1316825.96345  24572075.8644   24572078.1594   24572075.375
        38.0004         35.9004
 -11239610.29347  -8746223.43446  22731167.5544   22731173.5814   22731167.545
        43.9004         41.2004
  -5596844.23447  -4344845.26446  23116329.7934   23116333.0234   23116331.076
        43.7004         41.2004
  -2894745.78346  -2240295.28646  24183682.6634   24183683.6654   24183683.520
        38.7004         36.6004
  -5589024.35246  -4338598.06546  24257167.5134   24257167.0204   24257167.282
        38.3004         36.0004
 -15834500.15748 -12318927.29347  20935815.8434   20935821.3554   20935815.187
        49.8004         47.2004
 -14661422.03447 -11397539.57447  22023689.4534   22023692.6244   22023689.518
        46.2004         43.5004
  -6683301.50447  -5193954.38846  22878314.3504   22878320.3214   22878314.106
        43.7004         41.1004
 16 12 15  0 14 30.0000000  0 10G05G02G29G25G19G17G23G06G12G09
 -11596225.98347  -9006576.56246  22529645.6854   22529648.6964   22529645.058
        44.6004         41.8004
 -21124613.26648 -16440536.15447  20671452.6704   20671453.2234   20671453.064
        50.3004         47.8004
  -1818222.45246  -1400435.47045  24551658.2304   24551660.4084   24551657.005
        37.6004         35.5004
 -11254730.96047  -8758005.77346  22728290.1024   22728296.0194   22728290.208
        43.9004         41.2004
  -5495377.68247  -4265780.46846  23135638.8514   23135640.6214   23135639.453
        43.7004         41.2004
  -2791523.52346  -2159862.42646  24203325.2764   24203327.1714   24203325.895
        39.0004         36.7004
  -5558087.16046  -4314491.14046  24263055.2404   24263054.5814   24263055.419
        38.5004         36.4004
 -15782820.10848 -12278657.13347  20945650.2604   20945655.8634   20945649.336
        49.8004         47.2004
 -14602535.50547 -11351653.97647  22034895.7894   22034897.9964   22034895.153
        46.2004         43.5004
  -6712590.80147  -5216777.20346  22872740.5614   22872746.3004   22872740.230
        43.7004         40.9004
 16 12 15  0 15  0.0000000  0 10G05G02G29G25G19G17G23G06G12G09
 -11696083.47747  -9084387.58346  22510643.2844   22510647.0464   22510643.348
        44.6004         41.9004
 -21145828.05248 -16457067.15547  20667415.4514   20667416.3294   20667415.837
        50.3004         47.8004
  -1925448.06146  -1483987.86745  24531254.6344   24531255.1244   24531252.949
        37.0004         34.8004
 -11269220.71047  -8769296.49346  22725532.9034   22725538.7944   22725533.286
        43.9004         41.4004
  -5393682.34947  -4186537.37846  23154990.6004   23154992.2054   23154991.308
        43.7004         41.1004
  -2688132.47446  -2079298.01546  24222999.1634   24223001.9164   24222998.528
        38.9004         36.6004
  -5526631.65246  -4289980.37046  24269038.4534   24269040.9494   24269039.308
        38.3004         36.0004
 -15730817.80248 -12238135.85847  20955545.9214   20955551.4834   20955545.517
        49.6004         47.2004
 -14543115.14247 -11305352.40447  22046203.2834   22046205.8244   22046202.962
        46.2004         43.5004
  -6741312.04247  -5239157.38946  22867275.6804   22867280.7764   22867275.246
        43.6004         40.9004
 16 12 15  0 15 30.0000000  0 10G05G02G29G25G19G17G23G06G12G09
 -11795641.75747  -9161965.46146  22491698.3564   22491701.5194   22491698.368
        44.6004         41.9004
 -21166728.22448 -16473353.01048  20663438.2664   20663439.2214   20663438.732
        50.3004         48.0004
  -2032599.45546  -1567482.43145  24510862.7894   24510867.1034   24510862.733
        36.6004         34.8004
 -11283079.10347  -8780095.24446  22722895.8044   22722901.4814   22722895.858
        44.1004         41.4004
  -5291760.06347  -4107117.44946  23174385.0644   23174387.9384   23174386.009
        43.7004         40.9004
  -2584574.29346  -1998603.31646  24242704.1834   24242709.9144   24242702.932
        38.9004         36.7004
  -5494658.92646  -4265066.57746  24275125.1744   24275125.0924   24275124.565
        38.5004         36.4004
 -15678494.19648 -12197364.22947  20965502.6714   20965508.3214   20965502.079
        49.6004         47.0004
 -14483163.18947 -11258636.60347  22057611.1324   22057614.5164   22057610.667
        46.2004         43.3004
  -6769463.81847  -5261093.82746  22861918.9434   22861923.1884   22861918.413
        43.6004         40.9004
 16 12 15  0 16  0.0000000  0 10G05G02G29G25G19G17G23G06G12G09
 -11894898.55347  -9239308.41547  22472810.4914   22472813.6524   22472810.294
        44.8004         42.1004
 -21187313.71348 -16489393.65048  20659520.9664   20659521.8824   20659521.503
        50.5004         48.0004
  -2139673.85746  -1650917.01845  24490487.8304   24490490.7344   24490488.119
        36.4004         34.6004
 -11296305.77947  -8790401.74646  22720378.9674   22720384.8894   22720378.747
        44.1004         41.2004
  -5189612.47847  -4027521.96646  23193823.1924   23193825.7834   23193824.222
        43.6004         40.9004
  -2480850.54446  -1917779.62846  24262441.3414   24262446.5794   24262440.628
        38.9004         36.7004
  -5462169.68246  -4239750.30246  24281305.5814   24281306.4164   24281306.702
        38.3004         36.2004
 -15625850.25848 -12156342.98847  20975520.2974   20975526.2214   20975519.513
        49.6004         47.0004
 -14422681.97547 -11211508.39447  22069120.4794   22069123.2914   22069120.249
        46.0004         43.2004
  -6797044.79447  -5282585.48546  22856669.3024   22856674.3774   22856669.267
        43.6004         40.9004
 16 12 15  0 16 30.0000000  0 10G05G02G29G25G19G17G23G06G12G09
 -11993852.10647  -9316415.07647  22453979.6334   22453983.5104   22453979.765
        44.8004         42.1004
 -21207583.92548 -16505188.62148  20655663.6244   20655664.5574   20655664.273
        50.5004         48.0004
  -2246669.51846  -1734290.25745  24470127.0184   24470127.8804   24470126.535
        36.6004         34.8004
 -11308900.28847  -8800215.65246  22717982.6384   22717988.0694   22717982.622
        44.1004         41.4004
  -5087241.23047  -3947752.17746  23213303.2864   23213306.5044   23213304.784
        43.6004         40.7004
  -2376962.34846  -1836827.83046  24282211.8434   24282216.6954   24282211.965
        39.4004         37.3004
  -5429164.93246  -4214032.32846  24287586.7594   24287587.5174   24287587.057
        38.5004         36.2004
 -15572886.87248 -12115072.83047  20985598.9194   20985604.8024   20985598.365
        49.5004         46.8004
 -14361673.62747 -11163969.44147  22080729.9964   22080732.6864   22080729.911
        46.0004         43.2004
  -6824053.57147  -5303631.27046  22851530.2584   22851535.4604   22851529.800
        43.6004         41.1004
 16 12 15  0 17  0.0000000  0 10G05G02G29G25G19G17G23G06G12G09
 -12092499.87947  -9393283.46047  22435207.4114   22435211.4004   22435207.225
        44.9004         42.1004
 -21227538.46048 -16520737.61147  20651866.3694   20651867.3504   20651866.833
        50.5004         47.8004
  -2353584.74046  -1817600.83745  24449780.4544   24449784.8084   24449782.247
        36.6004         34.8004
 -11320862.29847  -8809536.70346  22715705.9504   22715711.6674   22715705.861
        44.1004         41.4004
  -4984648.04347  -3867809.45146  23232827.2394   23232829.7004   23232828.802
        43.4004         40.7004
  -2272911.59246  -1755749.40146  24302013.0874   24302016.0584   24302012.481
        39.6004         37.3004
  -5395645.72446  -4187913.46146  24293965.6724   24293966.0724   24293965.276
        38.5004         36.4004
 -15519605.00648 -12073554.49947  20995738.2194   20995744.0414   20995737.717
        49.5004         46.8004
 -14300140.51947 -11116021.57147  22092439.4824   22092442.2234   22092439.134
        46.0004         43.2004
  -6850488.78747  -5324230.13146  22846499.4744   22846505.6384   22846499.611
        43.7004         41.1004
 16 12 15  0 17 30.0000000  0 10G05G02G29G25G19G17G23G06G12G09
 -12190840.14547  -9469912.23447  22416494.1434   22416497.8734   22416493.596
        44.9004         42.1004
 -21247177.09548 -16536040.45348  20648129.1804   20648130.3614   20648129.719
        50.5004         48.0004
  -2460417.70746  -1900847.33845  24429451.3024   24429455.2234   24429451.697
        36.8004         35.0004
 -11332191.51147  -8818364.66046  22713549.9184   22713556.0134   22713550.135
        44.1004         41.4004
  -4881834.42847  -3787694.96646  23252391.9384   23252394.5884   23252392.065
        43.2004         40.6004
  -2168700.10346  -1674545.69846  24321843.2864   24321847.1364   24321841.607
        39.6004         37.1004
  -5361613.01346  -4161394.48346  24300441.5314   24300442.8394   24300442.677
        38.5004         36.4004
 -15466005.66248 -12031788.78947  21005937.8824   21005943.7134   21005937.159
        49.5004         47.0004
 -14238085.42247 -11067666.97047  22104248.0974   22104250.7424   22104248.031
        46.0004         43.3004
  -6876349.21747  -5344381.10846  22841578.7694   22841584.8354   22841578.690
        43.9004         41.4004
 16 12 15  0 18  0.0000000  0 10G05G02G29G25G19G17G23G06G12G09
 -12288870.78847  -9546299.75147  22397840.2664   22397843.4514   22397840.159
        44.9004         42.5004
 -21266499.50648 -16551096.87348  20644452.3184   20644453.3044   20644452.856
        50.5004         48.0004
  -2567166.01446  -1984027.84745  24409138.1414   24409142.3164   24409138.254
        37.1004         35.3004
 -11342887.53147  -8826699.23346  22711514.6684   22711520.9674   22711514.693
        44.1004         41.4004
  -4778801.81447  -3707409.84546  23271997.5884   23272000.5064   23271998.631
        42.9004         40.0004
  -2064329.09846  -1593217.73346  24341703.4684   24341709.2324   24341703.156
        39.4004         36.9004
  -5327067.90046  -4134476.22146  24307016.1764   24307016.1454   24307014.980
        38.7004         36.4004
 -15412089.65048 -11989776.32247  21016197.7894   21016203.2324   21016197.137
        49.5004         46.8004
 -14175510.26247 -11018907.11747  22116155.3374   22116158.2204   22116155.727
        46.0004         43.3004
  -6901633.45247  -5364083.10246  22836766.8154   22836773.1424   22836766.713
        43.9004         41.1004
 16 12 15  0 18 30.0000000  0 10G05G02G29G25G19G17G23G06G12G09
 -12386589.99247  -9622444.58547  22379244.6914   22379247.7104   22379244.043
        45.1004         42.5004
 -21285505.72648 -16565906.91448  20640835.6414   20640836.5154   20640836.377
        50.5004         48.0004
  -2673828.14246  -2067141.21545  24388840.3454   24388843.2574   24388840.732
        37.6004         35.7004
 -11352950.35147  -8834540.39646  22709599.8814   22709605.7724   22709599.604
        44.1004         41.4004
  -4675552.19147  -3626955.62246  23291645.9084   23291648.0214   23291646.802
        42.9004         40.2004
  -1959800.26346  -1511766.74446  24361594.8904   24361600.1664   24361595.285
        38.9004         36.4004
  -5292011.65746  -4107159.67246  24313686.1484   24313688.0204   24313686.624
        38.7004         36.6004
 -15357858.17148 -11947518.03647  21026517.7504   21026523.3154   21026517.343
        49.5004         46.8004
 -14112417.80547 -10969744.17547  22128161.4444   22128165.0214   22128161.155
        46.0004         43.3004
  -6926340.47447  -5383335.30946  22832065.3524   22832071.3024   22832065.185
        43.9004         41.2004
 16 12 15  0 19  0.0000000  0 10G05G02G29G25G19G17G23G06G12G09
 -12483995.57947  -9698345.04347  22360708.8134   22360712.2864   22360708.880
        45.1004         42.5004
 -21304194.73948 -16580469.78048  20637279.1444   20637280.0404   20637279.680
        50.5004         48.0004
  -2780402.24446  -2150186.00846  24368560.6474   24368564.3964   24368561.454
        38.3004         36.4004
 -11362379.49547  -8841887.77646  22707805.2354   22707811.5194   22707805.435
        44.1004         41.4004
  -4572087.26647  -3546333.62246  23311334.9754   23311337.2684   23311335.394
        42.9004         40.4004
  -1855114.96646  -1430193.91746  24381517.7454   24381520.8374   24381518.086
        39.0004         37.1004
  -5256444.81446  -4079445.25046  24320453.7084   24320455.2764   24320454.812
        38.5004         36.2004
 -15303311.99748 -11905014.53547  21036897.5864   21036903.3664   21036896.759
        49.5004         46.8004
 -14048810.24547 -10920179.86047  22140266.3944   22140269.2504   22140266.036
        46.0004         43.3004
  -6950468.87747  -5402136.65346  22827473.7224   22827479.3354   22827473.535
        43.7004         41.1004
 16 12 15  0 19 30.0000000  0 10G05G02G29G25G19G17G23G06G12G09
 -12581085.20047  -9773999.27747  22342232.7054   22342236.7034   22342232.866
        45.1004         42.5004
 -21322566.36348 -16594785.33848  20633783.3234   20633784.1454   20633783.781
        50.5004         48.2004
  -2886885.88746  -2233160.28446  24348299.0324   24348300.9354   24348297.340
        39.0004         36.9004
 -11371174.69047  -8848741.18946  22706131.3134   22706137.1544   22706131.673
        43.9004         41.2004
  -4468408.34447  -3465544.88946  23331064.8954   23331067.1754   23331065.603
        43.0004         40.6004
  -1750274.94846  -1348500.44146  24401467.6184   24401469.5964   24401466.951
        38.5004         36.0004
  -5220368.72946  -4051334.02746  24327319.5874   24327320.3664   24327320.387
        38.3004         36.2004
 -15248452.00248 -11862266.49647  21047337.0904   21047342.6314   21047336.520
        49.3004         46.8004
 -13984690.41547 -10870216.37247  22152468.0184   22152470.8624   22152467.298
        45.8004         43.2004
  -6974017.34347  -5420486.08946  22822992.8654   22822998.7374   22822992.666
        43.7004         41.2004
 16 12 15  0 20  0.0000000  0 10G05G02G29G25G19G17G23G06G12G09
 -12677857.33547  -9849406.13847  22323818.5964   22323822.3164   22323817.564
        45.3004         42.6004
 -21340620.88848 -16608853.80448  20630347.6334   20630348.5734   20630348.264
        50.7004         48.2004
  -2993277.55146  -2316062.87246  24328052.0044   24328055.1614   24328052.136
        39.6004         37.4004
 -11379335.93647  -8855100.60646  22704578.7254   22704584.3194   22704578.876
        43.9004         41.2004
  -4364517.23747  -3384590.81546  23350834.1034   23350837.5524   23350835.506
        43.2004         40.6004
  -1645281.83146  -1266687.62546  24421447.0354   24421448.6704   24421446.234
        38.3004         36.0004
  -5183784.68746  -4022826.97046  24334282.0194   24334282.2274   24334282.586
        38.7004         36.6004
 -15193279.34748 -11819274.82747  21057836.0584   21057841.4284   21057835.735
        49.3004         46.8004
 -13920060.05947 -10819855.07047  22164766.2954   22164769.5564   22164766.140
        45.8004         43.2004
  -6996984.90847  -5438382.87346  22818622.6114   22818628.0784   22818622.658
        43.9004         41.4004
 16 12 15  0 20 30.0000000  0 10G05G02G29G25G19G17G23G06G12G09
 -12774309.57747  -9924563.73147  22305464.4424   22305467.9554   22305463.957
        45.5004         42.8004
 -21358357.27748 -16622674.36648  20626972.3984   20626973.3444   20626973.000
        50.7004         48.2004
  -3099575.11746  -2398892.14846  24307824.3004   24307827.7404   24307824.068
        40.1004         37.9004
 -11386862.91547  -8860965.79346  22703145.7494   22703152.4314   22703146.444
        43.9004         41.2004
  -4260415.41947  -3303472.54846  23370643.3284   23370647.3374   23370643.921
        43.0004         40.4004
  -1540136.84546  -1184756.43845  24441454.0304   24441458.7004   24441455.263
        37.6004         35.3004
  -5146693.44546  -3993924.70145  24341337.8724   24341341.5514   24341338.251
        38.2004         35.9004
 -15137794.78248 -11776040.10747  21068394.3794   21068399.8364   21068393.819
        49.3004         46.6004
 -13854921.99847 -10769098.15547  22177161.5344   22177164.0964   22177161.386
        45.8004         43.0004
  -7019370.25347  -5455825.98546  22814362.4414   22814368.4674   22814362.386
        43.9004         41.2004
 16 12 15  0 21  0.0000000  0 10G05G02G29G25G19G17G23G06G12G09
 -12870439.87447  -9999470.44747  22287171.1734   22287174.6034   22287170.844
        45.5004         42.8004
 -21375775.34248 -16636246.87848  20623657.6804   20623658.8224   20623658.042
        50.7004         48.2004
  -3205776.95346  -2481646.82046  24287614.8094   24287617.6544   24287614.691
        40.3004         37.8004
 -11393755.54447  -8866336.68146  22701834.8554   22701840.4984   22701834.684
        43.9004         41.4004
  -4156104.58247  -3222191.41646  23390493.3354   23390496.6704   23390493.761
        43.0004         40.4004
  -1434841.79846  -1102708.36846  24461492.6614   24461497.1184   24461493.348
        37.8004         36.0004
  -5109096.31446  -3964628.25845  24348494.2824   24348494.3484   24348494.735
        38.0004         35.7004
 -15081999.37748 -11732563.16947  21079011.8664   21079017.5284   21079011.189
        49.3004         46.6004
 -13789278.80847 -10717947.63347  22189653.4774   22189656.0734   22189652.992
        45.6004         42.8004
  -7041172.26247  -5472814.55846  22810213.4584   22810218.8784   22810213.611
        43.9004         41.2004
 16 12 15  0 21 30.0000000  0 10G05G02G29G25G19G17G23G06G12G09
 -12966246.31647 -10074124.81347  22268939.1044   22268943.4724   22268938.915
        45.5004         42.8004
 -21392874.89748 -16649571.21448  20620404.0484   20620404.8064   20620404.550
        50.7004         48.2004
  -3311880.60346  -2564324.98546  24267423.9834   24267426.7874   24267424.202
        40.1004         37.8004
 -11400013.73347  -8871213.19646  22700643.9474   22700649.4384   22700644.075
        43.9004         41.2004
  -4051586.34247  -3140748.67646  23410382.1384   23410385.3304   23410383.184
        42.9004         40.0004
  -1329398.23546  -1020544.59946  24481557.9964   24481563.4044   24481557.637
        38.2004         36.0004
  -5070994.50146  -3934938.51546  24355744.1224   24355745.3784   24355746.087
        38.2004         36.0004
 -15025894.06248 -11688844.75347  21089688.4874   21089694.2274   21089687.932
        49.3004         46.5004
 -13723133.08847 -10666405.53347  22202240.2274   22202243.4374   22202240.168
        45.6004         42.8004
  -7062389.86847  -5489347.74846  22806176.1484   22806181.5784   22806176.000
        43.7004         41.1004
 16 12 15  0 22  0.0000000  0 10G05G02G29G25G19G17G23G06G12G09
 -13061726.93147 -10148525.28047  22250769.9554   22250773.5874   22250769.914
        45.5004         42.8004
 -21409655.69648 -16662647.15548  20617210.7014   20617211.3944   20617211.310
        50.7004         48.2004
  -3417884.19646  -2646925.16946  24247252.0344   24247254.7644   24247251.622
        39.9004         37.4004
 -11405637.34447  -8875595.23346  22699573.7564   22699579.3704   22699574.200
        44.1004         41.4004
  -3946862.72047  -3059145.88646  23430311.1154   23430313.4784   23430312.249
        42.7004         39.9004
  -1223807.91646   -938266.47945  24501650.8974   24501656.8634   24501649.815
        38.0004         35.9004
  -5032389.13746  -3904856.40746  24363090.6944   24363093.1494   24363090.198
        38.2004         36.0004
 -14969479.76648 -11644885.56747  21100423.9284   21100429.4834   21100423.422
        49.3004         46.6004
 -13656486.88747 -10614473.43947  22214923.0254   22214926.0844   22214922.991
        45.6004         42.8004
  -7083021.94047  -5505424.67646  22802249.9054   22802255.0374   22802249.864
        43.7004         41.1004
 16 12 15  0 22 30.0000000  0 10G05G02G29G25G19G17G23G06G12G09
 -13156879.73147 -10222670.31247  22232663.7204   22232666.8224   22232662.893
        45.6004         43.0004
 -21426117.24348 -16675474.33348  20614078.0814   20614079.0804   20614078.656
        50.7004         48.2004
  -3523785.71446  -2729445.81946  24227099.7884   24227102.8964   24227099.576
        39.6004         37.3004
 -11410626.42347  -8879482.83446  22698624.3104   22698630.5464   22698624.142
        44.1004         41.6004
  -3841935.22147  -2977384.22946  23450278.3054   23450281.0124   23450278.895
        42.5004         39.9004
  -1118072.14246   -855875.02545  24521768.3594   24521776.4514   24521767.696
        37.6004         35.5004
  -4993281.63446  -3874383.05145  24370533.5854   24370533.8594   24370531.775
        37.8004         35.9004
 -14912757.52548 -11600686.42847  21111217.6014   21111223.2884   21111216.605
        49.3004         46.6004
 -13589342.98447 -10562153.52247  22227699.5014   22227702.5934   22227699.266
        45.5004         43.0004
  -7103067.46747  -5521044.55846  22798435.6044   22798440.7364   22798435.388
        43.7004         41.1004
 16 12 15  0 23  0.0000000  0 10G05G02G29G25G19G17G23G06G12G09
 -13251702.85447 -10296558.45647  22214618.9654   22214622.4104   22214618.738
        45.6004         43.0004
 -21442259.43048 -16688052.66048  20611006.3804   20611007.1644   20611006.758
        50.7004         48.2004
  -3629583.04746  -2811885.26546  24206966.7664   24206970.2034   24206967.064
        39.4004         36.9004
 -11414980.76047  -8882875.82346  22697795.6614   22697802.4104   22697795.739
        44.2004         41.6004
  -3736805.49047  -2895464.98146  23470283.3584   23470287.3704   23470284.606
        42.5004         39.9004
  -1012192.86746   -773371.80546  24541917.6264   24541923.2694   24541917.784
        38.0004         36.0004
  -4953672.85746  -3843519.06246  24378070.1754   24378070.8054   24378071.623
        38.2004         36.0004
 -14855728.14548 -11556247.96147  21122070.1014   21122075.6694   21122069.413
        49.3004         46.6004
 -13521704.46947 -10509448.20347  22240570.7764   22240573.4914   22240570.576
        45.5004         42.8004
  -7122525.25247  -5536206.45046  22794732.9634   22794738.7784   22794732.518
        43.6004         40.9004
 16 12 15  0 23 30.0000000  0 10G05G02G29G25G19G17G23G06G12G09
 -13346194.03347 -10370187.93747  22196637.5364   22196641.4974   22196637.014
        45.6004         43.0004
 -21458081.54148 -16700381.57948  20607995.7184   20607996.6134   20607996.286
        50.7004         48.2004
  -3735274.49546  -2894242.20446  24186855.2584   24186858.2794   24186854.639
        39.0004         36.7004
 -11418700.46747  -8885774.31146  22697088.0054   22697094.1104   22697088.126
        44.1004         41.4004
  -3631474.58747  -2813388.99346  23490328.2624   23490330.5764   23490328.257
        42.7004         40.0004
   -906171.08546   -690757.51146  24562096.6284   24562098.9674   24562096.871
        39.6004         37.9004
  -4913564.09246  -3812265.47346  24385702.5254   24385704.0694   24385702.076
        38.3004         36.2004
 -14798392.67348 -11511570.98347  21132980.4334   21132986.6174   21132980.150
        49.3004         46.6004
 -13453572.87347 -10456358.65547  22253536.3784   22253538.8544   22253536.277
        45.6004         42.8004
  -7141394.37647  -5550909.65346  22791141.9994   22791147.2104   22791141.800
        43.7004         40.9004
 16 12 15  0 24  0.0000000  0 10G05G02G29G25G19G17G23G06G12G09
 -13440351.13747 -10443557.10147  22178720.4634   22178723.9714   22178719.842
        45.8004         43.0004
 -21473583.61848 -16712461.11848  20605045.8484   20605046.4654   20605046.422
        50.7004         48.2004
  -3840858.00346  -2976515.03946  24166762.8484   24166765.8984   24166763.343
        39.2004         36.9004
 -11421785.54847  -8888178.28146  22696500.8984   22696506.6934   22696501.387
        44.2004         41.4004
  -3525944.63747  -2731157.90046  23510409.7104   23510411.8724   23510410.573
        42.5004         39.7004
   -800008.97146   -608033.82646  24582298.8564   24582300.7924   24582298.490
        40.3004         37.8004
  -4872956.50646  -3780623.21546  24393429.6254   24393430.9914   24393429.357
        38.2004         36.0004
 -14740752.04748 -11466656.21747  21143949.1404   21143955.2604   21143948.520
        49.3004         46.5004
 -13384951.46847 -10402887.44847  22266594.3984   22266597.1364   22266593.975
        45.6004         42.8004
  -7159673.84547  -5565153.38346  22787663.6284   22787669.2444   22787663.541
        43.7004         41.2004
 16 12 15  0 24 30.0000000  0 10G05G02G29G25G19G17G23G06G12G09
 -13534172.66947 -10516664.79447  22160867.0134   22160870.4584   22160866.492
        45.8004         43.2004
 -21488765.35948 -16724291.04848  20602156.7214   20602157.5194   20602157.026
        50.7004         48.4004
  -3946331.55946  -3058702.21446  24146691.6534   24146694.2254   24146690.968
        39.2004         36.9004
 -11424236.14847  -8890087.84746  22696034.1554   22696040.6354   22696034.171
        44.1004         41.4004
  -3420217.46847  -2648773.14546  23530527.9394   23530530.7814   23530529.534
        42.0004         39.2004
   -693707.98946   -525201.95746  24602525.4064   24602529.5544   24602526.082
        39.9004         37.3004
  -4831851.59346  -3748593.41945  24401251.1524   24401252.5384   24401252.532
        38.2004         35.9004
 -14682807.29248 -11421504.48247  21154975.5094   21154981.7904   21154975.011
        49.3004         46.6004
 -13315842.83047 -10349036.57847  22279744.9234   22279748.1574   22279744.915
        45.5004         42.8004
  -7177362.73747  -5578936.93146  22784297.9404   22784302.7314   22784297.818
        43.7004         41.2004
 16 12 15  0 25  0.0000000  0 10G05G02G29G25G19G17G23G06G12G09
 -13627656.49947 -10589509.33347  22143077.1964   22143080.6494   22143077.263
        45.8004         43.0004
 -21503626.16848 -16735870.89448  20599328.4874   20599329.5994   20599328.928
        50.7004         48.2004
  -4051692.65646  -3140801.76546  24126642.2774   24126645.4804   24126642.622
        39.4004         37.1004
 -11426052.08547  -8891502.86046  22695688.8624   22695695.0564   22695689.336
        44.1004         41.2004
  -3314294.52346  -2566235.79846  23550684.0794   23550687.7784   23550684.827
        41.8004         39.0004
   -587269.65646   -442263.02746  24622780.0604   24622784.9034   24622779.626
        39.0004         36.4004
  -4790250.54746  -3716177.02945  24409168.8454   24409168.2794   24409168.881
        38.2004         35.9004
 -14624559.19848 -11376116.37147  21166059.9474   21166065.9594   21166059.087
        49.1004         46.5004
 -13246249.40047 -10294807.94847  22292988.6754   22292991.4544   22292988.538
        45.5004         42.6004
  -7194459.92547  -5592259.40346  22781044.7464   22781049.0464   22781043.945
