     2.10           OBSERVATION DATA    G (GPS)             RINEX VERSION / TYPE
sirfrnx1 100618     your name here      20150518 16:43:42ET PGM / RUN BY / DATE
XXXX                                                        MARKER NAME
0001                                                        MARKER NUMBER
your name here      <private>                               OBSERVER / AGENCY
nnnnn               SiRF III            Firmware unknown    REC # / TYPE / VERS
000000              Antenna unknown                         ANT # / TYPE
     1     0                                                WAVELENGTH FACT L1/2
     1    C1                                                # / TYPES OF OBSERV
     1.0000                                                 INTERVAL
 SNR is mapped to RINEX snr flag value [1-9]                COMMENT
  L1: 10 dBHz = 1; 30 dBHz = 5; 50 dBHz = 9                 COMMENT
  -954888.0000  3786081.0000  5026955.0000                  APPROX POSITION XYZ
        0.0000        0.0000        0.0000                  ANTENNA: DELTA H/E/N
  2015    05    18    00    41   23.0000613     GPS         TIME OF FIRST OBS
                                                            END OF HEADER
 15  5 18  0 41 23.0000613  0 11G 1G12G32G24G22G14G11G 4G18G31G17
  23527987.056 8
  21972648.359 8
  22403365.951 6
  23784621.452 7
  21148286.543 6
  20408196.378 4
  24488332.428 4
  23108442.059 5
  23196661.017 4
  22514486.129 5
  25648439.341 3
 15  5 18  0 41 24.0000613  0 11G 1G12G32G24G22G14G11G 4G18G31G17
  23527900.192 8
  21972620.569 8
  22402887.237 5
  23785272.449 7
  21148685.515 6
  20408150.444 4
  24488620.925 4
  23108699.683 5
  23197296.183 4
  22513871.405 5
  25648503.069 3
 15  5 18  0 41 25.0000613  0 11G 1G12G32G24G22G14G11G 4G18G31G17
  23527815.469 8
  21972594.920 8
  22402410.598 5
  23785925.499 7
  21149086.340 6
  20408107.268 4
  24488915.359 4
  23108959.419 5
  23197938.791 4
  22513258.710 5
  25648554.131 3
 15  5 18  0 41 26.0000613  0 11G 1G12G32G24G22G14G11G 4G18G31G17
  23527729.677 8
  21972568.220 8
  22401932.854 5
  23786577.382 7
  21149485.828 6
  20408062.760 4
  24489187.365 4
  23109217.855 5
  23198578.688 4
  22512592.942 5
  25648601.174 3
 15  5 18  0 41 27.0000613  0 11G 1G12G32G24G22G14G11G 4G18G31G17
  23527644.287 8
  21972541.938 8
  22401455.457 5
  23787229.558 7
  21149885.531 6
  20408018.227 4
  24489470.844 4
  23109476.646 5
  23199218.911 4
  22511977.993 5
  25648653.384 1
 15  5 18  0 41 28.0000613  0 11G 1G12G32G24G22G14G11G 4G18G31G17
  23527559.667 8
  21972516.424 8
  22400978.769 5
  23787882.412 7
  21150285.832 6
  20407974.481 4
  24489768.983 4
  23109736.169 5
  23199861.063 4
  22511366.813 5
  25648706.211 1
 15  5 18  0 41 29.0000613  0 11G 1G12G32G24G22G14G11G 4G18G31G17
  23527474.858 8
  21972490.710 8
  22400501.858 5
  23788534.978 7
  21150685.809 6
  20407930.252 4
  24490069.194 4
  23109995.458 5
  23200503.787 4
  22510757.673 4
  25648761.955 2
 15  5 18  0 41 30.0001227  0  5G 1G12G32G24G22
  23545782.402 8
  21990857.349 8
  22418417.205 5
  23807579.816 7
  21169478.159 6
 15  5 18  0 41 31.0001840  0  8G 1G12G32G24G22G14G11G 4
  23564090.698 8
  22009224.755 8
  22436333.278 5
  23826625.308 7
  21188271.431 6
  20444627.230 4
  24527464.199 4
  23147299.973 5
 15  5 18  0 41 32.0002454  0  7G 1G12G32G24G22G14G11
  23582398.565 8
  22027591.750 8
  22454248.851 5
  23845670.262 7
  21207064.265 6
  20462975.897 4
  24546163.599 4
 15  5 18  0 41 33.0003068  0  6G 1G12G32G24G22G14
  23600707.114 8
  22045959.465 8
  22472165.055 5
  23864715.785 7
  21225857.759 5
  20481325.091 4
 15  5 18  0 41 34.0003681  0  6G 1G12G32G24G22G14
  23619015.213 8
  22064326.762 8
  22490080.800 5
  23883760.771 7
  21244650.803 5
  20499673.590 4
 15  5 18  0 41 35.0004294  0  5G 1G12G32G24G22
  23637324.014 8
  22082694.809 8
  22507997.125 5
  23902806.369 7
  21263444.542 5
 15  5 18  0 41 36.0004908  0  8G 1G12G32G24G22G14G11G 4
  23655632.321 8
  22101062.374 8
  22525912.940 5
  23921851.352 7
  21282237.707 5
  20536371.344 4
  24620965.056 5
  23240563.534 5
 15  5 18  0 41 37.0005522  0  7G 1G12G32G24G22G14G11
  23673941.331 8
  22119430.667 8
  22543829.412 5
  23940896.949 7
  21301031.504 5
  20554720.474 4
  24639666.449 5
 15  5 18  0 41 38.0006135  0  6G 1G12G32G24G22G14
  23692249.942 8
  22137798.558 8
  22561745.458 5
  23959942.027 7
  21319824.957 5
  20573069.061 4
 15  5 18  0 41 39.0006748  0  6G 1G12G32G24G22G14
  23710559.246 8
  22156167.176 8
  22579662.138 5
  23978987.727 7
  21338619.057 5
  20591418.181 4
 15  5 18  0 41 40.0007362  0  5G 1G12G32G24G22
  23728868.053 8
  22174535.302 8
  22597578.280 5
  23998032.795 7
  21357412.605 5
 15  5 18  0 41 41.0007975  0  6G 1G12G32G24G22G14
  23747177.511 8
  22192904.084 8
  22615495.018 5
  24017078.425 7
  21376206.849 5
  20628116.214 4
 15  5 18  0 41 42.0008589  0  6G 1G12G32G24G22G14
  23765486.516 8
  22211272.425 8
  22633411.273 5
  24036123.479 7
  21395000.616 5
  20646465.044 4
 15  5 18  0 41 43.0009203  0  7G 1G12G32G24G22G14G11
  23783796.330 8
  22229641.580 8
  22651328.322 5
  24055169.265 7
  21413795.181 5
  20664814.432 4
  24751875.447 3
 15  5 18  0 41 44.0009816  0  7G 1G12G32G24G22G14G11
  23802105.679 8
  22248010.267 8
  22669244.879 5
  24074214.496 7
  21432589.311 5
  20683163.498 4
  24770552.368 3
 15  5 18  0 41 45.0010429  0  6G 1G12G32G24G22G14
  23820415.757 8
  22266379.675 8
  22687162.144 6
  24093260.364 7
  21451384.145 5
  20701513.176 4
 15  5 18  0 41 46.0011043  0  6G 1G12G32G24G22G14
  23838725.370 8
  22284748.617 8
  22705078.898 6
  24112305.668 7
  21470178.357 5
  20719862.406 4
 15  5 18  0 41 47.0011656  0  6G 1G12G32G24G22G14
  23857035.680 8
  22303118.282 8
  22722996.303 6
  24131351.590 7
  21488973.037 5
  20738212.358 5
 15  5 18  0 41 48.0012270  0  7G 1G12G32G24G22G14G11
  23875345.559 8
  22321487.538 8
  22740913.244 6
  24150396.974 7
  21507767.147 5
  20756561.831 5
  24845312.399 3
 15  5 18  0 41 49.0012884  0  7G 1G12G32G24G22G14G11
  23893656.163 8
  22339857.550 8
  22758830.874 6
  24169442.990 7
  21526561.884 5
  20774912.085 5
  24864015.424 3
 15  5 18  0 41 50.0013497  0  6G 1G12G32G24G22G14
  23911966.348 8
  22358227.159 8
  22776748.048 6
  24188488.488 7
  21545356.069 5
  20793261.835 5
 15  5 18  0 41 51.0014110  0  6G 1G12G32G24G22G14
  23930277.205 8
  22376597.481 8
  22794665.841 6
  24207534.570 7
  21564150.951 5
  20811612.090 5
 15  5 18  0 41 52.0014724  0  6G 1G12G32G24G22G14
  23948587.647 8
  22394967.408 8
  22812583.162 6
  24226580.136 7
  21582945.443 5
  20829961.833 5
 15  5 18  0 41 53.0015338  0  6G 1G12G32G24G22G14
  23966898.758 8
  22413338.015 8
  22830501.050 6
  24245626.269 7
  21601740.478 5
  20848312.124 5
 15  5 18  0 41 54.0015951  0  6G 1G12G32G24G22G14
  23985209.409 8
  22431708.169 8
  22848418.448 6
  24264671.836 7
  21620525.707 4
  20866661.863 5
 15  5 18  0 41 55.0016565  0  6G 1G12G32G24G22G14
  24003520.864 8
  22450079.148 8
  22866336.598 6
  24283718.092 7
  21639318.756 4
  20885012.404 5
 15  5 18  0 41 56.0017178  0  7G 1G12G32G24G22G14G11
  24021831.798 8
  22468449.619 8
  22884254.168 6
  24302763.729 7
  21658106.214 4
  20903362.471 5
  24994958.565 3
 15  5 18  0 41 57.0017792  0  7G 1G12G32G24G22G14G11
  24040143.432 8
  22486820.798 8
  22902172.374 6
  24321809.972 7
  21676901.024 4
  20921713.218 5
  25013661.027 3
 15  5 18  0 41 58.0018405  0  6G 1G12G32G24G22G14
  24058454.621 8
  22505191.568 8
  22920090.128 6
  24340855.706 7
  21695695.620 4
  20940063.542 5
 15  5 18  0 41 59.0019019  0  7G 1G12G32G24G22G14G11
  24076766.553 8
  22523563.069 8
  22938008.531 6
  24359902.070 7
  21714490.529 4
  20958414.535 5
  25051064.251 3
 15  5 18  0 42  0.0019632  0  7G 1G12G32G24G22G14G11
  24095078.034 8
  22541934.150 8
  22955926.463 6
  24378947.921 7
  21733269.784 4
  20976764.993 5
  25069771.515 3
 15  5 18  0 42  1.0020246  0  6G 1G12G32G24G22G14
  24113390.282 8
  22560305.992 8
  22973845.145 6
  24397994.441 7
  21752074.409 4
  20995116.115 5
 15  5 18  0 42  2.0020859  0  6G 1G12G32G24G22G14
  24131702.053 8
  22578677.383 8
  22991763.294 6
  24417040.396 7
  21770859.421 4
  21013466.778 4
 15  5 18  0 42  3.0021473  0  6G 1G12G32G24G22G14
  24150014.509 8
  22597049.462 8
  23009682.053 6
  24436086.925 7
  21789652.170 4
  21031817.920 4
 15  5 18  0 42  4.0022086  0  6G 1G12G32G24G22G14
  24168326.497 8
  22615421.109 8
  23027600.349 6
  24455132.901 7
  21808445.328 4
  21050168.500 4
 15  5 18  0 42  5.0022700  0  6G 1G12G32G24G22G14
  24186639.267 8
  22633793.543 8
  23045519.354 6
  24474179.567 7
  21827236.413 4
  21068519.830 4
 15  5 18  0 42  6.0023313  0  6G 1G12G32G24G22G14
  24204951.520 8
  22652165.510 8
  23063437.805 6
  24493225.628 7
  21846025.658 4
  21086870.623 4
 15  5 18  0 42  7.0023927  0  7G 1G12G32G24G22G14G11
  24223264.454 8
  22670538.166 8
  23081356.830 6
  24512272.266 7
  21864824.008 4
  21105222.063 4
  25200710.076 3
 15  5 18  0 42  8.0024540  0  7G 1G12G32G24G22G14G11
  24241576.948 8
  22688910.407 8
  23099275.368 6
  24531318.369 7
  21883635.216 4
  21123573.018 4
  25219414.337 3
 15  5 18  0 42  9.0025153  0  6G 1G12G32G24G22G14
  24259890.217 8
  22707283.427 8
  23117194.571 5
  24550365.146 7
  21902426.833 4
  21141924.734 4
 15  5 18  0 42 10.0025767  0  6G 1G12G32G24G22G14
  24278202.915 8
  22725655.901 8
  23135113.139 4
  24569411.257 7
  21921215.878 4
  21160275.852 4
 15  5 18  0 42 11.0026381  0  7G 1G12G32G24G22G14G11
  24296516.338 8
  22744029.082 8
  23153032.310 4
  24588458.013 7
  21940017.208 4
  21178627.695 4
  25275540.782 3
 15  5 18  0 42 12.0026994  0  7G 1G12G32G24G22G14G11
  24314829.343 8
  22762401.880 8
  23170951.015 4
  24607504.256 7
  21958823.761 4
  21196979.065 4
  25294263.626 3
 15  5 18  0 42 13.0027607  0  6G 1G12G32G24G22G14
  24333143.082 8
  22780775.379 8
  23188838.039 4
  24626551.122 7
  21977641.703 4
  21215331.135 4
 15  5 18  0 42 14.0028221  0  6G 1G12G32G24G22G14
  24351456.388 8
  22799148.443 8
  23206748.256 3
  24645597.460 7
  21996463.052 4
  21233682.729 4
 15  5 18  0 42 15.0028835  0  6G 1G12G32G24G22G14
  24369770.451 8
  22817522.238 8
  23224664.490 3
  24664644.478 7
  22015273.136 4
  21252035.007 4
 15  5 18  0 42 16.0029448  0  6G 1G12G32G24G22G14
  24388083.985 8
  22835895.503 8
  23242594.613 3
  24683690.851 7
  22034082.373 4
  21270386.730 4
 15  5 18  0 42 17.0030062  0  6G 1G12G32G24G22G14
  24406398.374 8
  22854269.612 8
  23260525.976 3
  24702737.991 7
  22052880.673 4
  21288739.266 5
 15  5 18  0 42 18.0030676  0  6G 1G12G32G24G22G14
  24424712.213 8
  22872643.201 8
  23278451.705 3
  24721784.485 7
  22071679.354 4
  21307091.182 5
 15  5 18  0 42 19.0031289  0  7G 1G12G32G24G22G14G11
  24443026.731 8
  22891017.465 8
  23296374.043 3
  24740831.558 7
  22090477.350 4
  21325443.762 5
  25425227.355 3
 15  5 18  0 42 20.0031902  0  7G 1G12G32G24G22G14G11
  24461340.793 8
  22909391.310 7
  23314297.868 3
  24759878.077 7
  22109273.294 4
  21343795.792 5
  25443930.325 3
 15  5 18  0 42 21.0032516  0  6G 1G12G32G24G22G14
  24479655.589 8
  22927765.883 7
  23332227.075 4
  24778925.213 7
  22128069.510 4
  21362148.456 5
 15  5 18  0 42 22.0033130  0  7G 1G12G32G24G22G14G11
  24497969.839 8
  22946139.960 7
  23350144.251 4
  24797971.724 7
  22146865.331 4
  21380500.504 5
  25481332.777 3
 15  5 18  0 42 23.0033743  0  7G 1G12G32G24G22G14G11
  24516284.862 8
  22964514.812 7
  23368066.971 4
  24817018.911 7
  22165662.678 4
  21398853.230 5
  25500018.402 3
 15  5 18  0 42 24.0034357  0  7G 1G12G32G24G22G14G11
  24534599.389 8
  22982889.193 7
  23385987.331 5
  24836065.504 7
  22184459.580 4
  21417205.419 5
  25518709.809 3
 15  5 18  0 42 25.0034970  0  6G 1G12G32G24G22G14
  24552914.773 8
  23001264.434 7
  23403908.075 5
  24855112.845 7
  22203257.345 4
  21435558.403 5
 15  5 18  0 42 26.0035583  0  6G 1G12G32G24G22G14
  24571229.653 8
  23019639.218 7
  23421828.560 5
  24874159.610 7
  22222055.588 4
  21453910.863 5
 15  5 18  0 42 27.0036197  0  6G 1G12G32G24G22G14
  24589545.253 8
  23038014.714 7
  23439749.158 5
  24893206.975 7
  22240855.165 4
  21472263.961 5
 15  5 18  0 42 28.0036811  0  6G 1G12G32G24G22G14
  24607860.447 8
  23056389.837 7
  23457669.818 5
  24912253.863 7
  22259654.070 4
  21490616.531 5
 15  5 18  0 42 29.0037424  0  6G 1G12G32G24G22G14
  24626176.390 8
  23074765.707 7
  23475590.879 5
  24931301.388 7
  22278453.249 4
  21508969.909 4
 15  5 18  0 42 30.0038038  0  7G 1G12G32G24G22G14G11
  24644491.868 8
  23093141.137 7
  23493511.218 5
  24950348.366 7
  22297251.986 4
  21527322.657 4
  25630962.691 3
 15  5 18  0 42 31.0038652  0  7G 1G12G32G24G22G14G11
  24662808.069 8
  23111517.276 7
  23511432.288 5
  24969395.957 7
  22316051.449 4
  21545662.407 4
  25649659.297 3
 15  5 18  0 42 32.0039265  0  6G 1G12G32G24G22G14
  24681123.664 8
  23129892.813 7
  23529352.794 5
  24988442.849 7
  22334850.136 4
  21564023.832 4
 15  5 18  0 42 33.0039878  0  6G 1G12G32G24G22G14
  24699440.072 8
  23148269.175 7
  23547274.052 5
  25007490.444 7
  22353649.451 4
  21582372.331 4
 15  5 18  0 42 34.0040492  0  6G 1G12G32G24G22G14
  24717756.002 8
  23166645.091 7
  23565194.789 5
  25026537.461 7
  22372448.322 4
  21600718.958 4
 15  5 18  0 42 35.0041106  0  7G 1G12G32G24G22G14G 4
  24736072.605 8
  23185021.710 7
  23583116.122 5
  25045585.062 7
  22391240.661 4
  21619077.318 4
  24341285.160 3
 15  5 18  0 42 36.0041719  0  7G 1G12G32G24G22G14G11
  24754388.786 8
  23203397.946 7
  23601036.981 5
  25064632.147 7
  22410029.494 3
  21637437.960 4
  25739459.270 2
 15  5 18  0 42 37.0042333  0  6G 1G12G32G24G22G14
  24772705.792 8
  23221775.037 7
  23618958.673 6
  25083679.942 7
  22428835.602 3
  21655798.308 4
 15  5 18  0 42 38.0042946  0  7G 1G12G32G24G22G14G11
  24791022.324 8
  23240151.679 7
  23636879.913 6
  25102727.179 7
  22447640.680 3
  21674148.082 4
  25785384.213 1
 15  5 18  0 42 39.0043560  0  6G 1G12G32G24G22G14
  24809339.596 8
  23258529.083 7
  23654801.865 6
  25121775.040 7
  22466458.419 3
  21692506.018 4
 15  5 18  0 42 40.0044173  0  7G 1G12G32G24G22G14G11
  24827656.432 8
  23276906.064 7
  23672723.291 6
  25140822.384 7
  22485274.193 3
  21710864.769 4
  25818159.415 4
 15  5 18  0 42 41.0044787  0  7G 1G12G32G24G22G14G11
  24845973.977 8
  23295283.752 7
  23690645.420 6
  25159870.312 7
  22504073.952 3
  21729214.858 4
  25836840.361 4
 15  5 18  0 42 42.0045400  0  7G 1G12G32G24G22G14G11
  24864291.056 8
  23313660.989 8
  23708567.043 6
  25178917.678 7
  22522877.868 3
  21747566.304 4
  25855545.323 4
 15  5 18  0 42 43.0046014  0  6G 1G12G32G24G22G14
  24882608.858 8
  23332038.969 8
  23726489.339 6
  25197965.695 7
  22541685.764 3
  21765919.006 4
 15  5 18  0 42 44.0046628  0  6G 1G12G32G24G22G14
  24900926.084 8
  23350416.403 8
  23744411.092 6
  25217013.021 7
  22560486.918 3
  21784264.095 4
 15  5 18  0 42 45.0047241  0  6G 1G12G32G24G22G14
  24919244.157 8
  23368794.680 8
  23762333.644 6
  25236061.076 7
  22579282.190 3
  21802615.963 4
 15  5 18  0 42 46.0047854  0  7G 1G12G32G24G22G14G11
  24937561.671 8
  23387172.403 8
  23780255.558 6
  25255108.488 7
  22598089.892 3
  21820963.863 4
  25930351.221 4
 15  5 18  0 42 47.0048468  0  7G 1G12G32G24G22G14G11
  24955879.950 8
  23405550.887 8
  23798178.184 6
  25274156.551 7
  22616889.976 3
  21839325.077 4
  25949065.918 4
 15  5 18  0 42 48.0049082  0  7G 1G12G32G24G22G14G11
  24974197.746 8
  23423928.930 8
  23816100.208 6
  25293204.079 7
  22635677.336 3
  21857676.739 4
  25967779.564 4
 15  5 18  0 42 49.0049695  0  6G 1G12G32G24G22G14
  24992516.202 8
  23442307.660 8
  23834022.844 6
  25312252.141 7
  22654449.337 3
  21876014.846 4
 15  5 18  0 42 50.0050308  0  6G 1G12G32G24G22G14
  25010834.203 8
  23460685.980 8
  23851944.976 6
  25331299.677 7
  22673224.964 3
  21894363.826 4
 15  5 18  0 42 51.0050922  0  7G 1G12G32G24G22G14G11
  25029153.034 8
  23479065.166 8
  23869867.863 6
  25350347.936 7
  22692008.798 3
  21912721.074 3
  26023901.102 4
 15  5 18  0 42 52.0051535  0  7G 1G12G32G24G22G14G11
  25047471.291 8
  23497443.818 8
  23887790.137 6
  25369395.562 7
  22710797.735 4
  21931083.877 3
  26042609.800 4
 15  5 18  0 42 53.0052149  0  7G 1G12G32G24G22G14G11
  25065790.247 8
  23515823.193 8
  23905713.047 6
  25388443.791 7
  22729611.550 4
  21949426.906 3
  26061320.303 4
 15  5 18  0 42 54.0052763  0  6G 1G12G32G24G22G14
  25084108.689 8
  23534202.070 8
  23923635.340 6
  25407491.431 7
  22748413.644 4
  21967784.944 3
 15  5 18  0 42 55.0053376  0  6G 1G12G32G24G22G14
  25102427.833 8
  23552581.650 8
  23941558.296 6
  25426539.669 7
  22767215.282 4
  21986148.392 3
 15  5 18  0 42 56.0053989  0  6G 1G12G32G24G22G14
  25120746.514 8
  23570960.797 8
  23959480.684 6
  25445587.331 7
  22786018.732 5
  22004490.257 3
 15  5 18  0 42 57.0054603  0  6G 1G12G32G24G22G14
  25139065.974 8
  23589340.727 8
  23977403.794 6
  25464635.680 7
  22804822.043 5
  22022859.102 3
 15  5 18  0 42 58.0055217  0  6G 1G12G32G24G22G14
  25157384.897 8
  23607720.138 8
  23995326.331 6
  25483683.370 7
  22823625.092 5
  22041216.023 3
 15  5 18  0 42 59.0055830  0  7G 1G12G32G24G22G14G11
  25175704.594 8
  23626100.343 8
  24013249.599 6
  25502731.746 7
  22842427.957 5
  22059573.405 3
  26173571.750 5
 15  5 18  0 43  0.0056444  0  7G 1G12G32G24G22G14G11
  25194023.939 8
  23644480.203 8
  24031172.438 6
  25521779.656 7
  22861230.228 5
  22077927.134 3
  26192280.432 5
 15  5 18  0 43  1.0057058  0  6G 1G12G32G24G22G14
  25212343.956 8
  23662860.721 8
  24049095.881 6
  25540828.125 7
  22880033.468 5
  22096292.194 3
 15  5 18  0 43  2.0057671  0  7G 1G12G32G24G22G14G11
  25230663.458 8
  23681240.735 8
  24067018.774 6
  25559875.991 7
  22898835.635 5
  22114649.480 3
  26229699.173 5
 15  5 18  0 43  3.0058284  0  7G 1G12G32G24G22G14G11
  25248983.743 8
  23699621.521 8
  24084942.453 6
  25578924.556 7
  22917638.241 5
  22133008.999 4
  26248409.565 5
 15  5 18  0 43  4.0058898  0  6G 1G12G32G24G22G14
  25267303.642 8
  23718001.924 8
  24102865.676 6
  25597972.626 7
  22936439.296 5
  22151371.757 4
 15  5 18  0 43  5.0059512  0  6G 1G12G32G24G22G14
  25285624.284 8
  23736383.057 8
  24120789.596 6
  25617021.334 7
  22955240.330 5
  22169726.576 4
 15  5 18  0 43  6.0060125  0  6G 1G12G32G24G22G14
  25303944.486 8
  23754763.766 8
  24138712.999 6
  25636069.501 7
  22974041.196 5
  22188088.459 4
 15  5 18  0 43  7.0060739  0  6G 1G12G32G24G22G14
  25322265.335 8
  23773145.142 8
  24156637.019 6
  25655118.223 7
  22992842.756 5
  22206449.535 4
 15  5 18  0 43  8.0061352  0  6G 1G12G32G24G22G14
  25340585.737 8
  23791526.092 8
  24174560.583 6
  25674166.391 7
  23011643.935 5
  22224799.308 4
 15  5 18  0 43  9.0061965  0  6G 1G12G32G24G22G14
  25358906.882 8
  23809907.795 8
  24192484.838 6
  25693215.202 7
  23030446.345 5
  22243151.205 4
 15  5 18  0 43 10.0062579  0  7G 1G12G32G24G22G14G11
  25377227.532 8
  23828289.029 8
  24210408.581 6
  25712263.429 7
  23049248.405 5
  22261495.300 4
  26379361.290 3
 15  5 18  0 43 11.0063193  0  7G 1G12G32G24G22G14G11
  25395548.887 8
  23846670.973 8
  24228332.953 6
  25731312.251 7
  23068051.246 5
  22279850.186 4
  26398072.106 3
 15  5 18  0 43 12.0063806  0  7G 1G12G32G24G22G14G11
  25413869.769 8
  23865052.469 8
  24246256.784 6
  25750360.518 7
  23086853.850 5
  22298198.062 4
  26416775.927 3
 15  5 18  0 43 13.0064420  0  6G 1G12G32G24G22G14
  25432191.447 8
  23883434.780 8
  24264181.391 6
  25769409.468 7
  23105657.179 5
  22316559.053 4
 15  5 18  0 43 14.0065033  0  6G 1G12G32G24G22G14
  25450512.639 8
  23901816.647 8
  24282105.466 6
  25788457.858 7
  23124459.949 5
  22334906.515 4
 15  5 18  0 43 15.0065646  0  7G 1G12G32G24G22G14G11
  25468834.581 8
  23920199.278 8
  24300030.233 6
  25807506.896 7
  23143263.183 5
  22353264.502 4
  26472895.690 2
 15  5 18  0 43 16.0066260  0  6G 1G12G32G24G22G14
  25487156.131 8
  23938581.550 8
  24317954.565 6
  25826555.441 7
  23162065.975 5
  22371617.603 3
 15  5 18  0 43 17.0066874  0  6G 1G12G32G24G22G14
  25505478.397 8
  23956964.533 8
  24335879.567 6
  25845604.611 7
  23180869.458 5
  22389974.348 2
 15  5 18  0 43 18.0067487  0  6G 1G12G32G24G22G14
  25523800.221 8
  23975347.102 8
  24353804.080 6
  25864653.229 7
  23199672.661 5
  22408332.035 2
 15  5 18  0 43 19.0068101  0  6G 1G12G32G24G22G14
  25542122.804 8
  23993730.424 8
  24371729.288 6
  25883702.530 7
  23218476.654 5
  22426685.316 2
 15  5 18  0 43 20.0068715  0  6G 1G12G32G24G22G14
  25560444.914 8
  24012113.292 8
  24389654.003 6
  25902751.262 7
  23237280.102 5
  22445047.711 2
 15  5 18  0 43 21.0069328  0  6G 1G12G32G24G22G14
  25578767.790 8
  24030496.935 8
  24407579.358 6
  25921800.645 7
  23256084.216 5
  22463407.283 2
 15  5 18  0 43 22.0069941  0  7G 1G12G32G24G22G14G11
  25597090.157 8
  24048880.088 8
  24425504.171 6
  25940849.419 7
  23274887.710 5
  22481752.235 2
  26603910.281 3
 15  5 18  0 43 23.0070555  0  7G 1G12G32G24G22G14G11
  25615413.267 8
  24067263.997 8
  24443429.661 6
  25959898.843 7
  23293691.918 5
  22500123.799 2
  26622622.243 3
 15  5 18  0 43 24.0071169  0  7G 1G12G32G24G22G14G11
  25633735.963 8
  24085647.511 8
  24461354.727 6
  25978947.745 7
  23312495.708 5
  22518478.008 2
  26641323.281 3
 15  5 18  0 43 25.0071782  0  6G 1G12G32G24G22G14
  25652059.368 8
  24104031.712 8
  24479280.420 6
  25997997.242 7
  23331299.981 5
  22536829.379 2
 15  5 18  0 43 26.0072395  0  7G 1G12G32G24G22G14G11
  25670382.343 8
  24122415.494 8
  24497205.657 6
  26017046.200 7
  23350103.711 5
  22555193.197 2
  26678738.381 3
 15  5 18  0 43 27.0073009  0  7G 1G12G32G24G22G14G11
  25688706.061 8
  24140800.030 8
  24515131.583 6
  26036095.808 7
  23368908.282 5
  22573549.832 2
  26697449.684 3
 15  5 18  0 43 28.0073622  0  6G 1G12G32G24G22G14
  25707029.416 8
  24159184.226 8
  24533057.070 6
  26055144.962 7
  23387712.526 5
  22591897.996 2
 15  5 18  0 43 29.0074236  0  6G 1G12G32G24G22G14
  25725353.544 8
  24177569.231 8
  24550983.240 6
  26074194.789 7
  23406517.532 5
  22610252.303 2
 15  5 18  0 43 30.0074850  0  6G 1G12G32G24G22G14
  25743677.208 8
  24195953.795 8
  24568908.930 6
  26093244.055 7
  23425322.040 5
  22628610.931 2
 15  5 18  0 43 31.0075463  0  6G 1G12G32G24G22G14
  25762001.632 8
  24214339.138 8
  24586835.303 5
  26112293.960 7
  23444127.233 5
  22646984.843 2
 15  5 18  0 43 32.0076076  0  6G 1G12G32G24G22G14
  25780325.659 8
  24232724.103 8
  24604761.238 5
  26131343.380 7
  23462931.923 5
  22665351.219 2
 15  5 18  0 43 33.0076690  0  7G 1G12G32G24G22G14G11
  25798650.375 8
  24251109.750 8
  24622687.785 5
  26150393.379 7
  23481704.762 4
  22683723.072 2
  26809803.198 2
 15  5 18  0 43 34.0077304  0  7G 1G12G32G24G22G14G 4
  25816974.570 8
  24269494.896 8
  24640613.802 5
  26169442.793 7
  23500499.460 3
  22702101.470 3
  25442477.973 5
 15  5 18  0 43 35.0077917  0  7G 1G12G32G24G22G14G11
  25835299.457 8
  24287880.718 8
  24658540.427 5
  26188492.779 7
  23519295.438 3
  22720482.895 4
  26849237.483 1
 15  5 18  0 43 36.0078531  0  6G 1G12G32G24G22G14
  25853623.906 8
  24306266.109 8
  24676466.552 5
  26207542.245 7
  23538111.110 3
  22738854.070 4
 15  5 18  0 43 37.0079144  0  6G 1G12G32G24G22G14
  25871949.168 8
  24324652.326 8
  24694393.396 5
  26226592.428 7
  23556915.162 3
  22757203.590 4
 15  5 18  0 43 38.0079758  0  7G 1G12G32G24G22G14G 4
  25890273.957 8
  24343038.112 8
  24712319.723 5
  26245642.019 7
  23575719.730 3
  22775550.119 4
  25517150.734 5
 15  5 18  0 43 39.0080371  0  7G 1G12G32G24G22G14G11
  25908599.459 8
  24361424.628 8
  24730246.711 5
  26264692.254 7
  23594518.471 3
  22793904.744 4
  26922844.065 1
 15  5 18  0 43 40.0080985  0  6G 1G12G32G24G22G14
  25926924.567 8
  24379810.761 8
  24748173.292 5
  26283741.971 7
  23613330.354 3
  22812257.128 4
 15  5 18  0 43 41.0081598  0  7G 1G12G32G24G22G14G11
  25945250.365 8
  24398197.618 8
  24766100.473 5
  26302792.304 7
  23632127.519 3
  22830608.927 4
  26959470.651 2
 15  5 18  0 43 42.0082212  0  7G 1G12G32G24G22G14G11
  25963575.699 8
  24416584.021 8
  24784027.101 5
  26321842.055 7
  23650937.410 3
  22848958.579 4
  26978180.497 3
 15  5 18  0 43 43.0082826  0  7G 1G12G32G24G22G14G11
  25981901.772 8
  24434971.139 8
  24801954.441 5
  26340892.444 7
  23669736.024 3
  22867309.548 2
  26996885.880 3
 15  5 18  0 43 44.0083439  0  6G 1G12G32G24G22G14
  26000227.368 8
  24453357.817 8
  24819881.277 5
  26359942.286 7
  23688550.875 3
  22885658.842 2
 15  5 18  0 43 45.0084052  0  6G 1G12G32G24G22G14
  26018553.764 8
  24471745.289 8
  24837808.842 5
  26378992.819 7
  23707355.783 3
  22904018.196 1
 15  5 18  0 43 46.0084666  0  7G 1G12G32G24G22G14G11
  26036879.606 8
  24490132.227 8
  24855735.828 5
  26398042.678 7
  23726157.854 3
  22922357.437 1
  27053048.161 3
 15  5 18  0 43 47.0085279  0  7G 1G12G32G24G22G14G11
  26055206.199 8
  24508519.921 8
  24873663.529 5
  26417093.211 7
  23744964.887 3
  22940723.590 1
  27071740.022 3
 15  5 18  0 43 48.0085893  0  6G 1G12G32G24G22G14
  26073532.304 8
  24526907.132 8
  24891590.710 5
  26436143.139 7
  23763766.560 3
  22959080.807 1
 15  5 18  0 43 49.0086507  0  7G 1G12G32G24G22G14G11
  26091859.140 8
  24545295.073 8
  24909518.540 5
  26455193.717 7
  23782581.298 3
  22977435.379 1
  27109167.123 2
 15  5 18  0 43 50.0087120  0  7G 1G12G32G24G22G14G11
  26110185.515 8
  24563682.563 8
  24927445.878 5
  26474243.727 7
  23801392.229 3
  22995812.376 1
  27127876.848 2
 15  5 18  0 43 51.0087733  0  7G 1G12G32G24G22G14G11
  26128512.626 8
  24582070.783 8
  24945373.890 5
  26493294.382 7
  23820198.134 3
  23014183.695 1
  27146597.441 2
 15  5 18  0 43 52.0088347  0  6G 1G12G32G24G22G14
  26146839.192 8
  24600458.449 8
  24963301.323 5
  26512344.379 7
  23838994.276 3
  23032539.611 2
 15  5 18  0 43 53.0088961  0  6G 1G12G32G24G22G14
  26165166.436 8
  24618846.798 8
  24981229.409 5
  26531394.944 7
  23857788.156 3
  23050905.749 2
 15  5 18  0 43 54.0089574  0  6G 1G12G32G24G22G14
  26183493.227 8
  24637234.736 8
  24999157.033 5
  26550444.957 7
  23876602.505 3
  23069273.984 3
 15  5 18  0 43 55.0090188  0  7G 1G12G32G24G22G14G11
  26201820.724 8
  24655623.419 8
  25017085.321 5
  26569495.611 7
  23895394.617 3
  23087631.030 3
  27221454.574 2
 15  5 18  0 43 56.0090801  0  6G 1G12G32G24G22G14
  26220147.774 8
  24674011.698 7
  25035013.166 5
  26588545.727 7
  23914199.017 3
  23105982.231 3
 15  5 18  0 43 57.0091415  0  7G 1G12G32G24G22G14G 4
  26238475.579 8
  24692400.746 7
  25052941.705 5
  26607596.504 7
  23932998.997 3
  23124344.771 3
  25871787.666 3
 15  5 18  0 43 58.0092028  0  7G 1G12G32G24G22G14G11
  26256802.934 8
  24710789.354 7
  25070869.790 6
  26626646.738 7
  23951808.151 3
  23142718.146 3
  27277631.710 1
 15  5 18  0 43 59.0092642  0  7G 1G12G32G24G22G14G11
  26275130.968 8
  24729178.679 7
  25088798.503 6
  26645697.553 7
  23970609.379 3
  23161075.833 3
  27296319.883 2
 15  5 18  0 44  0.0093256  0  6G 1G12G32G24G22G14
  26293458.430 8
  24747567.464 8
  25106726.624 6
  26664747.710 7
  23989408.908 3
  23179432.670 3
 15  5 18  0 44  1.0093869  0  6G 1G12G32G24G22G14
  26311786.634 8
  24765957.024 8
  25124655.416 6
  26683798.508 7
  24008219.430 3
  23197791.606 3
 15  5 18  0 44  2.0094482  0  6G 1G12G32G24G22G14
  26330114.381 8
  24784346.147 8
  25142583.710 6
  26702848.725 7
  24027027.269 3
  23216165.370 3
 15  5 18  0 44  3.0095096  0  7G 1G12G32G24G22G14G11
  26348442.892 8
  24802736.074 8
  25160512.707 6
  26721899.630 7
  24045851.324 3
  23234521.234 3
  27371235.507 2
 15  5 18  0 44  4.0095710  0  6G 1G12G32G24G22G14
  26366770.871 8
  24821125.484 8
  25178441.133 6
  26740949.864 7
  24064671.499 3
  23252879.135 3
 15  5 18  0 44  5.0096323  0  6G 1G12G32G24G22G14
  26385099.647 8
  24839515.701 8
  25196370.256 6
  26760000.834 7
  24083488.659 3
  23271232.953 4
 15  5 18  0 44  6.0096937  0  6G 1G12G32G24G22G14
  26403427.868 8
  24857905.383 8
  25214298.811 6
  26779051.151 7
  24102306.539 3
  23289590.465 4
 15  5 18  0 44  7.0097551  0  6G 1G12G32G24G22G14
  26421756.778 8
  24876295.747 8
  25232227.947 6
  26798102.043 7
  24121123.104 3
  23307956.315 4
 15  5 18  0 44  8.0098164  0  7G 1G12G32G24G22G14G11
  26440085.262 8
  24894685.714 8
  25250156.652 6
  26817152.408 7
  24139940.638 3
  23326326.643 4
  27464878.175 2
 15  5 18  0 44  9.0098777  0  7G 1G12G32G24G22G14G11
  26458414.467 8
  24913076.406 8
  25268085.997 6
  26836203.392 7
  24158737.060 3
  23344687.516 4
  27483593.673 2
 15  5 18  0 44 10.0099391  0  7G 1G12G32G24G22G14G11
  26476743.266 8
  24931466.707 8
  25286014.907 6
  26855253.896 7
  24177556.443 3
  23363054.187 4
  27502295.456 2
 15  5 18  0 44 11.0100005  0  6G 1G12G32G24G22G14
  26495072.763 8
  24949857.707 8
  25303944.433 6
  26874304.987 7
  24196362.501 3
  23381419.819 4
 15  5 18  0 44 12.0100618  0  6G 1G12G32G24G22G14
  26513401.700 8
  24968248.149 8
  25321873.361 6
  26893355.420 7
  24215177.396 3
  23399777.245 4
 15  5 18  0 44 13.0101232  0  6G 1G12G32G24G22G14
  26531731.435 8
  24986639.384 8
  25339802.999 6
  26912406.539 7
  24233962.864 3
  23418136.934 4
 15  5 18  0 44 14.0101845  0  7G 1G12G32G24G22G14G 4
  26550060.609 8
  25005030.070 8
  25357732.060 6
  26931457.015 7
  24252767.999 3
  23436487.048 4
  26189283.120 4
 15  5 18  0 44 15.0102459  0  7G 1G12G32G24G22G14G31
  26568390.542 8
  25023421.525 8
  25375661.807 6
  26950508.141 7
  24271573.992 3
  23454851.807 4
  25463236.334 1
 15  5 18  0 44 16.0103072  0  6G 1G12G32G24G22G14
  26586719.930 8
  25041812.464 8
  25393590.988 6
  26969558.647 7
  24290391.004 3
  23473211.840 4
 15  5 18  0 44 17.0103686  0  6G 1G12G32G24G22G14
  26605050.095 8
  25060204.191 8
  25411520.871 6
  26988609.820 7
  24309209.250 3
  23491569.907 4
 15  5 18  0 44 18.0104299  0  6G 1G12G32G24G22G14
  26623379.729 8
  25078595.396 8
  25429450.206 6
  27007660.370 7
  24328019.066 3
  23509932.071 4
 15  5 18  0 44 19.0104913  0  7G 1G12G32G24G22G14G31
  26641710.013 8
  25096987.255 8
  25447380.113 6
  27026711.457 7
  24346831.903 3
  23528289.127 4
  25534441.484 3
 15  5 18  0 44 20.0105527  0  7G 1G12G32G24G22G14G31
  26660039.869 8
  25115378.707 8
  25465309.570 6
  27045762.028 7
  24365640.623 3
  23546657.037 4
  25552237.854 3
 15  5 18  0 44 21.0106140  0  6G 1G12G32G24G22G14
  26678370.446 8
  25133770.874 8
  25483239.646 6
  27064813.210 7
  24384461.436 3
  23565000.219 3
 15  5 18  0 44 22.0106754  0  6G 1G12G32G24G22G14
  26696700.553 8
  25152162.601 8
  25501169.255 6
  27083863.836 7
  24403272.672 4
  23583360.352 2
 15  5 18  0 44 23.0107367  0  6G 1G12G32G24G22G14
  26715031.371 8
  25170555.054 8
  25519099.513 6
  27102915.056 7
  24422082.441 4
  23601724.988 2
 15  5 18  0 44 24.0107981  0  6G 1G12G32G24G22G14
  26733361.721 8
  25188947.071 8
  25537029.259 6
  27121965.726 7
  24440893.789 4
  23620086.156 2
 15  5 18  0 44 25.0108595  0  6G 1G12G32G24G22G14
  26751692.813 8
  25207339.832 8
  25554959.661 6
  27141017.016 7
  24459702.548 4
  23638450.164 2
 15  5 18  0 44 26.0109208  0  6G 1G12G32G24G22G14
  26770023.429 8
  25225732.162 8
  25572889.570 6
  27160067.767 7
  24478510.018 4
  23656811.343 2
 15  5 18  0 44 27.0109822  0  7G 1G12G32G24G22G14G31
  26788354.846 8
  25244125.278 8
  25590820.196 6
  27179119.194 7
  24497314.725 4
  23675173.496 2
  25676770.246 4
 15  5 18  0 44 28.0110435  0  6G 1G12G32G24G22G14
  26806685.684 8
  25262517.811 8
  25608750.228 6
  27198169.942 7
  24516132.678 4
  23693544.251 1
 15  5 18  0 44 29.0111049  0  7G 1G12G32G24G22G14G31
  26825017.362 8
  25280911.175 8
  25626681.054 6
  27217221.410 7
  24534942.325 4
  23711913.987 1
  25712354.305 4
 15  5 18  0 44 30.0111662  0  7G 1G12G32G24G22G14G31
  26843348.585 8
  25299304.110 8
  25644611.381 6
  27236272.337 7
  24553751.651 4
  23730289.180 1
  25730142.796 4
 15  5 18  0 44 31.0112276  0  7G 1G12G32G24G22G14G31
  26861680.449 8
  25317697.687 8
  25662542.287 6
  27255323.787 7
  24572561.717 4
  23748669.550 1
  25747937.035 4
 15  5 18  0 44 32.0112890  0  6G 1G12G32G24G22G14
  26880011.914 8
  25336090.886 8
  25680472.772 6
  27274374.760 7
  24591372.380 4
  23767050.132 1
 15  5 18  0 44 33.0113503  0  6G 1G12G32G24G22G14
  26898344.087 8
  25354484.814 8
  25698403.936 6
  27293426.331 7
  24610182.432 4
  23785437.914 2
 15  5 18  0 44 34.0114117  0  6G 1G12G32G24G22G14
  26916675.807 8
  25372878.323 8
  25716334.639 6
  27312477.359 7
  24628992.528 4
  23803811.327 2
 15  5 18  0 44 35.0114731  0  7G 1G12G32G24G22G14G31
  26935008.209 8
  25391272.526 8
  25734265.968 6
  27331528.956 7
  24647803.982 4
  23822184.028 2
  25819125.172 4
 15  5 18  0 44 36.0115344  0  6G 1G12G32G24G22G14
  26953340.080 8
  25409666.231 8
  25752196.743 6
  27350579.935 7
  24666614.853 4
  23840552.952 2
 15  5 18  0 44 37.0115958  0  7G 1G12G32G24G22G14G31
  26971672.680 8
  25428060.671 8
  25770128.209 6
  27369631.545 7
  24685426.480 4
  23858908.680 2
  25854711.669 4
 15  5 18  0 44 38.0116571  0  7G 1G12G32G24G22G14G31
  26990004.821 8
  25446454.668 8
  25788059.201 6
  27388682.602 7
  24704237.687 4
  23877263.155 2
  25872500.880 4
 15  5 18  0 44 39.0117185  0  7G 1G12G32G24G22G14G31
  27008337.755 8
  25464849.460 8
  25805990.944 6
  27407734.341 7
  24723049.880 4
  23895619.028 2
  25890291.990 4
 15  5 18  0 44 40.0117798  0  7G 1G12G32G24G22G14G31
  27026670.180 8
  25483243.766 8
  25823922.132 6
  27426785.478 7
  24741861.470 4
  23913981.539 2
  25908082.222 4
 15  5 18  0 44 41.0118412  0  6G 1G12G32G24G22G14
  27045003.377 8
  25501638.834 8
  25841854.030 6
  27445837.258 7
  24760673.940 4
  23932333.418 2
 15  5 18  0 44 42.0119025  0  6G 1G12G32G24G22G14
  27063336.044 8
  25520033.400 8
  25859785.373 6
  27464888.429 7
  24779485.718 4
  23950672.989 2
 15  5 18  0 44 43.0119639  0  6G 1G12G32G24G22G14
  27081669.354 8
  25538428.610 8
  25877717.261 6
  27483940.129 7
  24798298.021 4
  23969007.100 2
 15  5 18  0 44 44.0120253  0  6G 1G12G32G24G22G14
  27100002.236 8
  25556823.402 8
  25895648.707 6
  27502991.301 7
  24817109.923 4
  23987359.656 2
 15  5 18  0 44 45.0120866  0  6G 1G12G32G24G22G14
  27118335.840 8
  25575218.918 8
  25913580.794 6
  27522043.086 7
  24835922.529 4
  24005725.670 2
 15  5 18  0 44 46.0121480  0  7G 1G12G32G24G22G14G31
  27136669.061 8
  25593614.062 8
  25931512.501 6
  27541094.416 7
  24854734.428 4
  24024086.548 2
  26014837.985 4
 15  5 18  0 44 47.0122094  0  7G 1G12G32G24G22G14G31
  27155002.953 8
  25612009.907 8
  25949444.800 6
  27560146.299 7
  24873546.653 4
  24042441.193 2
  26032626.738 4
 15  5 18  0 44 48.0122707  0  7G 1G12G32G24G22G14G31
  27173336.326 8
  25630405.264 8
  25967376.538 6
  27579197.579 7
  24892358.386 4
  24060806.613 2
  26050410.079 4
 15  5 18  0 44 49.0123321  0  6G 1G12G32G24G22G14
  27191670.490 8
  25648801.434 8
  25985308.984 6
  27598249.525 7
  24911165.722 4
  24079177.083 3
 15  5 18  0 44 50.0123934  0  6G 1G12G32G24G22G14
  27210004.161 8
  25667197.139 8
  26003240.929 6
  27617300.910 7
  24929972.464 4
  24097546.232 3
 15  5 18  0 44 51.0124548  0  6G 1G12G32G24G22G14
  27228338.589 8
  25685593.594 8
  26021173.577 6
  27636352.939 7
  24948787.613 4
  24115911.923 3
 15  5 18  0 44 52.0125162  0  7G 1G12G32G24G22G14G31
  27246672.532 8
  25703989.602 8
  26039105.687 6
  27655404.396 7
  24967608.775 4
  24134290.003 3
  26121591.726 4
 15  5 18  0 44 53.0125775  0  6G 1G12G32G24G22G14
  27265007.296 8
  25722386.408 8
  26057038.521 6
  27674456.542 7
  24986423.814 4
  24152667.244 3
 15  5 18  0 44 54.0126389  0  6G 1G12G32G24G22G14
  27283341.466 8
  25740782.638 8
  26074970.747 6
  27693508.003 7
  25005240.184 4
  24171041.227 4
 15  5 18  0 44 55.0127003  0  6G 1G12G32G24G22G14
  27301676.337 8
  25759179.569 8
  26092903.607 6
  27712560.049 7
  25024057.659 4
  24189397.279 4
 15  5 18  0 44 56.0127616  0  6G 1G12G32G24G22G14
  27320010.678 8
  25777576.003 8
  26110835.827 6
  27731611.463 7
  25042873.430 4
  24207765.549 4
 15  5 18  0 44 57.0128229  0  6G 1G12G32G24G22G14
  27338345.746 8
  25795973.143 8
  26128768.675 5
  27750663.492 7
  25061689.977 4
  24226129.669 4
 15  5 18  0 44 58.0128843  0  6G 1G12G32G24G22G14
  27356680.325 8
  25814369.809 8
  26146700.946 5
  27769714.950 7
  25080505.679 5
  24244498.675 4
 15  5 18  0 44 59.0129456  0  7G 1G12G32G24G22G14G31
  27375015.668 8
  25832767.224 8
  26164633.850 4
  27788767.062 7
  25099321.049 5
  24262863.711 4
  26246166.108 4
 15  5 18  0 45  0.0130070  0  7G 1G12G32G24G22G14G31
  27393350.591 8
  25851164.253 8
  26182566.244 4
  27807818.655 7
  25118135.756 5
  24281230.877 4
  26263961.067 4
 15  5 18  0 45  1.0130683  0  6G 1G12G32G24G22G14
  27411686.228 8
  25869561.997 8
  26200499.186 4
  27826870.857 7
  25136951.651 5
  24299593.936 4
 15  5 18  0 45  2.0131297  0  6G 1G12G32G24G22G14
  27430021.416 8
  25887959.340 8
  26218431.792 4
  27845922.550 7
  25155767.785 5
  24317955.953 4
 15  5 18  0 45  3.0131910  0  6G 1G12G32G24G22G14
  27448357.285 8
  25906357.371 8
  26236348.750 4
  27864974.798 7
  25174584.689 5
  24336318.306 3
 15  5 18  0 45  4.0132524  0  6G 1G12G32G24G22G14
  27466692.696 8
  25924754.971 8
  26254287.913 4
  27884026.501 7
  25193400.742 5
  24354679.483 3
 15  5 18  0 45  5.0133137  0  7G 1G12G32G24G22G14G31
  27485028.842 8
  25943153.307 8
  26272224.703 4
  27903078.834 7
  25212215.864 5
  24373038.412 2
  26352929.675 4
 15  5 18  0 45  6.0133751  0  6G 1G12G32G24G22G14
  27503364.473 8
  25961551.150 8
  26290155.662 4
  27922130.557 7
  25231029.887 5
  24391399.157 2
 15  5 18  0 45  7.0134365  0  6G 1G12G32G24G22G14
  27521700.854 8
  25979949.759 8
  26308089.933 4
  27941182.917 7
  25249843.841 5
  24409765.864 2
 15  5 18  0 45  8.0134978  0  6G 1G12G32G24G22G14
  27540036.716 8
  25998347.870 8
  26326022.715 4
  27960234.666 7
  25268656.657 5
  24428133.199 2
 15  5 18  0 45  9.0135591  0  6G 1G12G32G24G22G14
  27558373.272 8
  26016746.685 8
  26343956.612 4
  27979286.981 7
  25287469.877 5
  24446481.125 1
 15  5 18  0 45 10.0136205  0  6G 1G12G32G24G22G31
  27576709.380 8
  26035145.059 8
  26361889.855 4
  27998338.744 7
  25306282.795 5
  26441840.027 3
 15  5 18  0 45 11.0136819  0  6G 1G12G32G24G22G14
  27595046.219 8
  26053544.207 8
  26379823.772 5
  28017391.129 7
  25325096.415 5
  24483377.017 1
 15  5 18  0 45 12.0137432  0  7G 1G12G32G24G22G14G31
  27613382.541 8
  26071942.873 8
  26397757.166 5
  28036442.940 7
  25343909.673 5
  24501732.846 3
  26477403.855 3
 15  5 18  0 45 13.0138046  0  7G 1G12G32G24G22G14G31
  27631719.622 8
  26090342.330 8
  26415691.332 5
  28055495.395 7
  25362723.830 5
  24520091.964 3
  26495197.642 3
 15  5 18  0 45 14.0138659  0  6G 1G12G32G24G22G14
  27650056.216 8
  26108741.328 8
  26433625.103 5
  28074547.257 7
  25381537.507 5
  24538456.024 3
 15  5 18  0 45 15.0139273  0  7G 1G12G32G24G22G14G31
  27668393.629 8
  26127141.164 8
  26451559.923 5
  28093599.844 7
  25400351.957 5
  24556820.111 2
  26530777.486 4
 15  5 18  0 45 16.0139886  0  7G 1G12G32G24G22G14G31
  27686730.475 8
  26145540.447 8
  26469494.084 5
  28112651.773 7
  25419165.802 5
  24575200.481 1
  26548568.940 4
 15  5 18  0 45 17.0140500  0  7G 1G12G32G24G22G31G 4
  27705068.062 8
  26163940.485 8
  26487429.067 5
  28131704.339 7
  25437980.389 5
  26566364.832 4
  27365833.481 3
 15  5 18  0 45 18.0141113  0  7G 1G12G32G24G22G31G 4
  27723405.182 8
  26182340.076 8
  26505363.482 5
  28150756.323 7
  25456794.749 5
  26584158.453 4
  27384512.437 3
 15  5 18  0 45 19.0141726  0  6G 1G12G32G24G22G14
  27741743.040 8
  26200740.417 8
  26523298.502 5
  28169808.928 7
  25475609.766 5
  24627418.628 2
 15  5 18  0 45 20.0142340  0  6G 1G12G32G24G22G31
  27760080.353 8
  26219140.237 8
  26541233.030 5
  28188860.909 7
  25494424.385 5
  26619747.127 5
 15  5 18  0 45 21.0142954  0  7G 1G12G32G24G22G31G 4
  27778418.398 8
  26237540.804 8
  26559168.263 5
  28207913.500 7
  25513239.730 5
  26637542.495 5
  27440554.901 4
 15  5 18  0 45 22.0143567  0  6G 1G12G32G24G22G31
  27796756.021 8
  26255940.936 8
  26577103.074 5
  28226965.566 7
  25532054.551 5
  26655337.659 5
 15  5 18  0 45 23.0144181  0  6G 1G12G32G24G22G11
  27815094.316 8
  26274341.738 8
  26595038.484 5
  28246018.201 7
  25550869.934 5
  28869152.980 2
 15  5 18  0 45 24.0144794  0  7G 1G12G32G24G22G11G31
  27833432.227 8
  26292742.178 8
  26612973.472 6
  28265070.361 7
  25569665.494 4
  28887865.980 4
  26690930.113 5
 15  5 18  0 45 25.0145408  0  7G 1G12G32G24G22G11G31
  27851770.867 8
  26311143.331 8
  26630909.142 6
  28284123.139 7
  25588460.024 3
  28906576.853 4
  26708727.330 5
 15  5 18  0 45 26.0146021  0  7G 1G12G32G24G22G11G31
  27870109.002 8
  26329543.999 8
  26648844.161 6
  28303175.328 7
  25607258.646 3
  28925297.679 4
  26726524.053 5
 15  5 18  0 45 27.0146635  0  6G 1G12G32G24G22G11
  27888447.863 8
  26347945.377 8
  26666779.842 6
  28322228.144 7
  25626067.295 3
  28944020.460 4
 15  5 18  0 45 28.0147249  0  6G 1G12G32G24G22G11
  27906786.297 8
  26366346.372 8
  26684715.081 6
  28341280.458 7
  25644887.449 3
  28962732.607 4
 15  5 18  0 45 29.0147862  0  7G 1G12G32G24G22G11G31
  27925125.466 8
  26384748.113 8
  26702650.896 6
  28360333.407 7
  25663721.599 3
  28981447.036 3
  26779915.002 5
 15  5 18  0 45 30.0148476  0  7G 1G12G32G24G22G31G 4
  27943464.166 8
  26403149.422 8
  26720586.172 6
  28379385.816 7
  25682565.915 3
  26797711.508 5
  27608687.932 5
 15  5 18  0 45 31.0149090  0  7G 1G12G32G24G22G11G31
  27961803.610 8
  26421551.472 8
  26738522.087 6
  28398438.850 7
  25701406.558 4
  29019517.510 2
  26815508.666 5
 15  5 18  0 45 32.0149703  0  6G 1G12G32G24G22G31
  27980142.548 8
  26439953.036 8
  26756457.419 6
  28417491.294 7
  25720234.518 5
  26833305.533 5
 15  5 18  0 45 33.0150316  0  7G 1G12G32G24G22G11G31
  27998482.262 8
  26458355.369 8
  26774393.456 6
  28436544.406 7
  25739062.586 5
  29056340.042 3
  26851102.880 5
 15  5 18  0 45 34.0150930  0  6G 1G12G32G24G22G11
  28016821.584 8
  26476757.324 8
  26792329.038 6
  28455597.038 7
  25757890.247 5
  29075076.009 3
 15  5 18  0 45 35.0151544  0  6G 1G12G32G24G22G11
  28035161.584 8
  26495159.966 8
  26810265.244 6
  28474650.244 7
  25776713.038 5
  29093804.939 3
 15  5 18  0 45 36.0152157  0  7G 1G12G32G24G22G31G 4
  28053501.137 8
  26513562.173 8
  26828200.949 6
  28493702.910 7
  25795535.061 5
  26904492.438 5
  27720777.574 5
 15  5 18  0 45 37.0152771  0  7G 1G12G32G24G22G31G 4
  28071841.454 8
  26531965.158 8
  26846137.344 6
  28512756.223 7
  25814385.882 4
  26922289.153 5
  27739459.741 5
 15  5 18  0 45 38.0153385  0  6G 1G12G32G24G22G11
  28090181.222 8
  26550367.619 8
  26864073.123 6
  28531808.911 7
  25833200.155 3
  29147695.585 1
 15  5 18  0 45 39.0153998  0  7G 1G12G32G24G22G31G 4
  28108521.701 8
  26568770.787 8
  26882009.628 6
  28550862.188 7
  25852026.279 3
  26957882.300 5
  27776823.259 5
 15  5 18  0 45 40.0154611  0  7G 1G12G32G24G22G11G31
  28126861.691 8
  26587173.513 8
  26899945.577 6
  28569914.893 7
  25870838.507 3
  29184749.566 1
  26975678.619 4
 15  5 18  0 45 41.0155225  0  7G 1G12G32G24G22G31G 4
  28145202.458 8
  26605577.023 8
  26917882.248 6
  28588968.266 7
  25889645.016 3
  26993468.266 4
  27814186.820 5
 15  5 18  0 45 42.0155838  0  6G 1G12G32G24G22G11
  28163542.731 8
  26623980.070 8
  26935818.404 6
  28608021.061 7
  25908455.830 4
  29221100.118 1
 15  5 18  0 45 43.0156452  0  6G 1G12G32G24G22G31
  28181883.785 8
  26642383.926 8
  26953755.301 6
  28627074.523 7
  25927272.804 4
  27029018.749 3
 15  5 18  0 45 44.0157066  0  6G 1G12G32G24G22G11
  28200224.427 8
  26660787.389 8
  26971691.709 6
  28646127.492 7
  25946087.289 4
  29257888.827 2
 15  5 18  0 45 45.0157679  0  6G 1G12G32G24G22G31
  28218565.821 8
  26679191.622 8
  26989628.835 6
  28665181.118 7
  25964903.209 5
  27064586.026 3
 15  5 18  0 45 46.0158292  0  6G 1G12G32G24G22G11
  28236906.756 8
  26697595.403 8
  27007565.396 6
  28684234.174 7
  25983719.303 5
  29299569.228 2
 15  5 18  0 45 47.0158906  0  6G 1G12G32G24G22G31
  28255248.414 8
  26715999.928 8
  27025502.625 6
  28703287.854 7
  26002537.372 5
  27100184.660 3
 15  5 18  0 45 48.0159520  0  6G 1G12G32G24G22G11
  28273589.559 8
  26734403.929 8
  27043439.290 6
  28722340.928 7
  26021356.687 5
  29331098.792 1
 15  5 18  0 45 49.0160133  0  6G 1G12G32G24G22G31
  28291931.404 8
  26752808.632 8
  27061376.550 6
  28741394.591 7
  26040175.735 5
  27135775.489 3
 15  5 18  0 45 50.0160747  0  7G 1G12G32G24G22G11G31
  28310272.724 8
  26771212.839 8
  27079313.230 6
  28760447.637 7
  26058995.988 5
  29374570.037 1
  27153584.591 3
 15  5 18  0 45 51.0161361  0  7G 1G12G32G24G22G31G 4
  28328614.790 8
  26789617.806 8
  27097250.628 6
  28779501.323 7
  26077815.083 5
  27171377.923 3
  28001011.781 5
 15  5 18  0 45 52.0161974  0  6G 1G12G32G24G22G11
  28346956.384 8
  26808022.308 8
  27115187.545 6
  28798554.423 7
  26096633.217 4
  29411956.625 3
 15  5 18  0 45 53.0162587  0  6G 1G12G32G24G22G11
  28365298.782 8
  26826427.633 8
  27133125.244 6
  28817608.217 7
  26115452.776 4
  29430696.492 4
 15  5 18  0 45 54.0163201  0  6G 1G12G32G24G22G11
  28383640.664 8
  26844832.457 8
  27151062.420 6
  28836661.396 7
  26134272.302 4
  29449421.946 4
 15  5 18  0 45 55.0163814  0  6G 1G12G32G24G22G11
  28401983.265 8
  26863237.996 8
  27169000.244 6
  28855715.183 7
  26153119.999 4
  29468153.332 4
 15  5 18  0 45 56.0164428  0  6G 1G12G32G24G22G11
  28420325.395 8
  26881643.096 8
  27186937.593 6
  28874768.412 7
  26171957.049 3
  29486878.086 4
 15  5 18  0 45 57.0165041  0  6G 1G12G32G24G22G11
  28438668.286 8
  26900048.947 8
  27204875.627 6
  28893822.280 7
  26190779.685 3
  29505607.760 4
 15  5 18  0 45 58.0165655  0  7G 1G12G32G24G22G11G31
  28457010.787 8
  26918454.417 8
  27222813.268 6
  28912875.688 7
  26209592.625 3
  29524331.112 4
  27295949.902 3
 15  5 18  0 45 59.0166268  0  6G 1G12G32G24G22G11
  28475353.992 8
  26936860.583 8
  27240751.553 6
  28931929.688 7
  26228401.883 3
  29543062.203 4
 15  5 18  0 46  0.0166882  0  6G 1G12G32G24G22G11
  28493696.659 8
  26955266.201 8
  27258689.271 6
  28950983.056 7
  26247212.743 3
  29561785.444 4
 15  5 18  0 46  1.0167496  0  6G 1G12G32G24G22G11
  28512040.109 8
  26973672.589 8
  27276627.715 6
  28970037.104 7
  26266013.762 3
  29580513.460 4
 15  5 18  0 46  2.0168109  0  7G 1G12G32G24G22G11G31
  28530383.071 8
  26992078.506 8
  27294565.629 6
  28989090.558 7
  26284836.837 3
  29599237.569 4
  27367154.251 3
 15  5 18  0 46  3.0168722  0  7G 1G12G32G24G22G11G31
  28548726.755 8
  27010485.161 8
  27312504.235 6
  29008144.642 7
  26303654.363 3
  29617974.998 4
  27384949.487 3
 15  5 18  0 46  4.0169336  0  6G 1G12G32G24G22G11
  28567069.938 8
  27028891.357 8
  27330442.318 6
  29027198.145 7
  26322464.649 3
  29636702.139 4
 15  5 18  0 46  5.0169949  0  6G 1G12G32G24G22G11
  28585413.850 8
  27047298.312 8
  27348381.085 6
  29046252.264 7
  26341266.366 3
  29655427.492 4
 15  5 18  0 46  6.0170563  0  6G 1G12G32G24G22G11
  28603757.226 8
  27065704.769 8
  27366319.276 6
  29065305.768 7
  26360056.922 3
  29674169.888 4
 15  5 18  0 46  7.0171177  0  6G 1G12G32G24G22G17
  28622101.292 8
  27084111.936 8
  27384258.093 6
  29084359.849 7
  26378848.097 3
  30786275.817 1
 15  5 18  0 46  8.0171790  0  6G 1G12G32G24G22G11
  28640444.872 8
  27102518.622 8
  27402196.409 6
  29103413.346 7
  26397641.360 3
  29711650.710 1
 15  5 18  0 46  9.0172403  0  6G 1G12G32G24G22G31
  28658789.237 8
  27120926.109 8
  27420135.419 6
  29122467.524 7
  26416459.011 3
  27491802.858 3
 15  5 18  0 46 10.0173017  0  7G 1G12G32G24G22G11G31
  28677133.147 8
  27139333.152 8
  27438073.923 6
  29141521.127 7
  26435274.391 3
  29749157.261 1
  27509609.006 4
 15  5 18  0 46 11.0173630  0  7G 1G12G32G24G22G31G 4
  28695477.823 8
  27157740.983 8
  27456013.137 6
  29160575.390 7
  26454093.423 3
  27527413.389 4
  28374694.106 5
 15  5 18  0 46 12.0174244  0  6G 1G12G32G24G22G17
  28713822.004 8
  27176148.353 8
  27473951.835 6
  29179629.071 7
  26472910.921 3
  30874645.340 2
 15  5 18  0 46 13.0174858  0  7G 1G12G32G24G22G31G 4
  28732167.040 8
  27194556.581 8
  27491891.314 6
  29198683.487 7
  26491739.490 3
  27563010.364 4
  28412065.100 5
 15  5 18  0 46 14.0175471  0  7G 1G12G32G24G22G17G31
  28750511.619 8
  27212964.370 8
  27509830.318 6
  29217737.360 7
  26510553.049 3
  30911670.881 1
  27580811.200 4
 15  5 18  0 46 15.0176084  0  7G 1G12G32G24G22G31G 4
  28768856.940 8
  27231372.919 8
  27527770.032 6
  29236791.869 7
  26529379.309 4
  27598610.371 4
  28449436.780 5
 15  5 18  0 46 16.0176698  0  6G 1G12G32G24G22G11
  28787201.771 8
  27249780.986 8
  27545709.197 6
  29255845.809 7
  26548212.039 4
  29861489.180 3
 15  5 18  0 46 17.0177312  0  6G 1G12G32G24G22G31
  28805547.223 8
  27268189.667 8
  27563648.927 6
  29274900.255 7
  26567045.447 4
  27634185.598 4
 15  5 18  0 46 18.0177925  0  6G 1G12G32G24G22G31
  28823892.219 8
  27286597.892 8
  27581588.172 6
  29293954.134 7
  26585865.820 4
  27651967.363 4
 15  5 18  0 46 19.0178539  0  6G 1G12G32G24G22G11
  28842237.992 8
  27305006.890 8
  27599528.144 6
  29313008.681 7
  26604685.162 4
  29917747.720 1
 15  5 18  0 46 20.0179152  0  6G 1G12G32G24G22G31
  28860583.306 8
  27323415.446 8
  27617467.639 6
  29332062.673 7
  26623503.092 4
  27687521.473 4
 15  5 18  0 46 21.0179765  0  7G 1G12G32G24G22G11G31
  28878929.336 8
  27341824.722 8
  27635407.770 6
  29351117.273 7
  26642315.608 4
  29955188.625 3
  27705323.313 4
 15  5 18  0 46 22.0180379  0  7G 1G12G32G24G22G31G 4
  28897274.937 8
  27360233.602 7
  27653347.475 6
  29370171.345 7
  26661125.151 4
  27723130.674 3
  28580240.767 5
 15  5 18  0 46 23.0180993  0  6G 1G12G32G24G22G31
  28915621.205 8
  27378643.148 7
  27671287.742 6
  29389225.968 7
  26679948.169 4
  27740916.683 3
 15  5 18  0 46 24.0181606  0  6G 1G12G32G24G22G11
  28933967.073 8
  27397052.322 7
  27689227.617 6
  29408280.092 7
  26698759.392 4
  30011383.200 1
 15  5 18  0 46 25.0182220  0  6G 1G12G32G24G22G31
  28952313.670 8
  27415462.226 7
  27707168.135 6
  29427334.823 7
  26717579.310 4
  27776511.251 3
 15  5 18  0 46 26.0182834  0  7G 1G12G32G24G22G31G 4
  28970659.796 8
  27433871.682 7
  27725108.149 6
  29446388.984 7
  26736408.485 4
  27794319.353 2
  28654988.698 5
 15  5 18  0 46 27.0183447  0  7G 1G12G32G24G22G31G 4
  28989006.652 8
  27452281.871 7
  27743048.829 6
  29465443.773 7
  26755240.563 4
  27812121.037 2
  28673676.280 5
 15  5 18  0 46 28.0184060  0  6G 1G12G32G24G22G11
  29007353.025 8
  27470691.599 7
  27760989.002 6
  29484497.973 7
  26774064.500 4
  30086208.868 1
 15  5 18  0 46 29.0184674  0  7G 1G12G32G24G22G31G 4
  29025700.140 8
  27489102.070 7
  27778929.845 6
  29503552.812 7
  26792889.246 4
  27847726.394 2
  28711051.102 5
 15  5 18  0 46 30.0185287  0  6G 1G12G32G24G22G17
  29044046.820 8
  27507512.144 7
  27796870.259 6
  29522607.135 7
  26811705.964 3
  31207371.017 1
 15  5 18  0 46 31.0185901  0  6G 1G12G32G24G22G11
  29062394.173 8
  27525922.902 7
  27814811.257 6
  29541662.014 7
  26830525.651 3
  30142226.679 1
 15  5 18  0 46 32.0186514  0  7G 1G12G32G24G22G17G31
  29080741.083 8
  27544333.258 7
  27832751.772 6
  29560716.353 7
  26849355.955 3
  31244353.079 2
  27901199.757 2
 15  5 18  0 46 33.0187128  0  7G 1G12G32G24G22G31G 4
  29099088.653 8
  27562744.292 7
  27850692.890 6
  29579771.257 7
  26868173.901 3
  27919021.308 3
  28785802.152 5
 15  5 18  0 46 34.0187741  0  6G 1G12G32G24G22G17
  29117435.809 8
  27581154.926 8
  27868633.592 6
  29598825.647 7
  26886994.153 3
  31281286.839 4
 15  5 18  0 46 35.0188355  0  6G 1G12G32G24G22G17
  29135783.740 8
  27599566.351 8
  27886574.957 6
  29617880.694 7
  26905832.000 3
  31299783.754 4
 15  5 18  0 46 36.0188969  0  6G 1G12G32G24G22G17
  29154131.206 8
  27617977.322 8
  27904515.847 6
  29636935.183 7
  26924654.031 4
  31318274.172 4
 15  5 18  0 46 37.0189582  0  7G 1G12G32G24G22G17G31
  29172479.396 8
  27636389.030 8
  27922457.383 6
  29655990.295 7
  26943487.369 4
  31336759.047 4
  27990219.810 4
 15  5 18  0 46 38.0190196  0  7G 1G12G32G24G22G17G31
  29190827.127 8
  27654800.283 7
  27940398.421 6
  29675044.843 7
  26962308.464 4
  31355243.627 4
  28008020.874 4
 15  5 18  0 46 39.0190809  0  6G 1G12G32G24G22G17
  29209175.660 8
  27673212.312 7
  27958340.169 6
  29694100.071 7
  26981136.400 4
  31373732.239 4
 15  5 18  0 46 40.0191423  0  6G 1G12G32G24G22G17
  29227523.781 8
  27691623.938 7
  27976281.467 6
  29713154.772 7
  26999960.533 4
  31392210.517 4
 15  5 18  0 46 41.0192036  0  6G 1G12G32G24G22G17
  29245872.630 8
  27710036.318 7
  27994223.423 6
  29732210.110 7
  27018794.570 4
  31410705.489 4
 15  5 18  0 46 42.0192650  0  7G 1G12G32G24G22G17G31
  29264220.917 8
  27728448.163 7
  28012164.719 6
  29751264.771 7
  27037632.264 4
  31429200.071 4
  28079218.118 4
 15  5 18  0 46 43.0193264  0  7G 1G12G32G24G22G17G31
  29282569.992 8
  27746860.804 8
  28030106.736 5
  29770320.109 7
  27056460.058 4
  31447691.992 4
  28097022.801 4
 15  5 18  0 46 44.0193877  0  7G 1G12G32G24G22G17G31
  29300918.677 8
  27765273.090 8
  28048048.280 5
  29789374.954 7
  27075285.859 4
  31466174.879 4
  28114822.869 4
 15  5 18  0 46 45.0194491  0  6G 1G12G32G24G22G17
  29319268.075 8
  27783686.093 8
  28065990.459 5
  29808430.413 7
  27094110.624 4
  31484661.232 4
 15  5 18  0 46 46.0195104  0  6G 1G12G32G24G22G17
  29337616.981 8
  27802098.628 8
  28083932.120 5
  29827485.280 7
  27112935.255 4
  31503148.270 4
 15  5 18  0 46 47.0195718  0  6G 1G12G32G24G22G17
  29355966.674 8
  27820511.960 8
  28101874.507 5
  29846540.843 7
  27131760.188 4
  31521635.649 4
 15  5 18  0 46 48.0196332  0  6G 1G12G32G24G22G17
  29374315.817 8
  27838924.785 8
  28119816.353 5
  29865595.804 7
  27150584.661 4
  31540121.500 4
 15  5 18  0 46 49.0196945  0  6G 1G12G32G24G22G17
  29392665.768 8
  27857338.403 8
  28137758.939 5
  29884651.450 7
  27169409.684 4
  31558607.698 4
 15  5 18  0 46 50.0197559  0  7G 1G12G32G24G22G17G31
  29411015.181 8
  27875751.514 8
  28155701.005 5
  29903706.455 7
  27188234.246 4
  31577093.331 4
  28221626.271 4
 15  5 18  0 46 51.0198172  0  6G 1G12G32G24G22G17
  29429365.318 8
  27894165.386 8
  28173643.763 5
  29922762.109 7
  27207059.866 4
  31595580.187 4
 15  5 18  0 46 52.0198786  0  6G 1G12G32G24G22G17
  29447714.986 8
  27912578.811 8
  28191586.041 5
  29941817.186 7
  27225885.080 4
  31614066.476 4
 15  5 18  0 46 53.0199399  0  6G 1G12G32G24G22G17
  29466065.403 8
  27930993.013 8
  28209528.989 5
  29960872.941 7
  27244711.124 4
  31632553.259 4
 15  5 18  0 46 54.0200013  0  6G 1G12G32G24G22G17
  29484415.382 8
  27949406.797 8
  28227471.494 6
  29979928.171 7
  27263536.744 4
  31651039.598 5
 15  5 18  0 46 55.0200626  0  7G 1G12G32G24G22G17G31
  29502766.047 8
  27967821.291 8
  28245414.630 6
  29998983.970 7
  27282362.929 4
  31669526.532 5
  28310629.940 4
 15  5 18  0 46 56.0201240  0  7G 1G12G32G24G22G17G31
  29521116.200 8
  27986235.306 8
  28263357.243 6
  30018039.167 7
  27301188.079 4
  31688013.130 5
  28328431.154 4
 15  5 18  0 46 57.0201854  0  6G 1G12G32G24G22G17
  29539467.126 8
  28004650.105 8
  28281300.554 6
  30037095.039 7
  27320013.953 4
  31706500.327 5
 15  5 18  0 46 58.0202467  0  7G 1G12G32G24G22G17G31
  29557817.569 8
  28023064.462 8
  28299243.387 6
  30056150.354 7
  27338845.465 4
  31724987.314 5
  28364035.097 4
 15  5 18  0 46 59.0203081  0  6G 1G12G32G24G22G17
  29576168.755 8
  28041479.544 8
  28317186.883 6
  30075206.297 7
  27357665.939 3
  31743474.946 5
 15  5 18  0 47  0.0203694  0  6G 1G12G32G24G22G17
  29594519.460 8
  28059894.175 8
  28335129.849 6
  30094261.659 7
  27376475.280 3
  31761962.187 5
 15  5 18  0 47  1.0204308  0  6G 1G12G32G24G22G17
  29612870.930 8
  28078309.583 8
  28353073.519 6
  30113317.677 7
  27395289.778 3
  31780449.993 5
 15  5 18  0 47  2.0204921  0  6G 1G12G32G24G22G17
  29631221.797 8
  28096724.393 8
  28371016.558 6
  30132373.000 7
  27414104.123 3
  31798937.295 5
 15  5 18  0 47  3.0205535  0  7G 1G12G32G24G22G17G31
  29649573.469 8
  28115139.998 8
  28388960.288 6
  30151429.001 7
  27432903.116 3
  31817425.228 5
  28453049.614 4
 15  5 18  0 47  4.0206149  0  6G 1G12G32G24G22G17
  29667924.716 8
  28133555.195 8
  28406903.576 6
  30170484.483 7
  27451721.725 3
  31835912.584 5
 15  5 18  0 47  5.0206762  0  6G 1G12G32G24G22G17
  29686276.740 8
  28151971.164 8
  28424847.579 6
  30189540.643 7
  27470541.029 3
  31854400.845 5
 15  5 18  0 47  6.0207375  0  6G 1G12G32G24G22G17
  29704628.228 8
  28170386.613 8
  28442791.001 6
  30208596.173 7
  27489360.101 3
  31872888.451 5
 15  5 18  0 47  7.0207989  0  6G 1G12G32G24G22G17
  29722980.477 8
  28188802.817 8
  28460735.142 6
  30227652.340 7
  27508209.022 3
  31891376.730 5
